business_id,business_name,business_address,business_city,business_state,business_postal_code,business_latitude,business_longitude,business_location,business_phone_number,inspection_id,inspection_date,inspection_score,inspection_type,violation_id,violation_description,risk_category,data_quality
1000,,3279 22nd St,San Francisco,CA,94110,37.755282,-122.420493,"(37.755282, -122.420493)",,1000_20171002,10/02/2017 12:00:00 AM,74.0,Routine - Unscheduled,1000_20171002_103161,Low risk vermin infestation,Low Risk,low
1002,,3392 24th St,San Francisco,CA,94110,37.752158,-122.420362,"(37.752158, -122.420362)",,1002_20180509,05/09/2018 12:00:00 AM,90.0,Routine - Unscheduled,1002_20180509_103118,Employee eating or smoking,Moderate Risk,low
1003,,3364 26th St,San Francisco,CA,94110,37.749128,-122.417402,"(37.749128, -122.417402)",14155897712,1003_20160706,07/06/2016 12:00:00 AM,88.0,Routine - Unscheduled,1003_20160706_103153,Inadequate dressing rooms or improper storage of personal items,Low Risk,low
10030,Marshall Elementary School,1575 15th St,San Francisco,CA,94103,37.766864,-122.419014,"(37.766864, -122.419014)",14155246280,10030_20170928,09/28/2017 12:00:00 AM,93.0,Routine - Unscheduled,10030_20170928_103103,High risk food holding temperature,High Risk,low
1005,,3006 MISSION St,San Francisco,CA,94110,37.748855,-122.418134,"(37.748855, -122.418134)",14155286927,1005_20160502,05/02/2016 12:00:00 AM,84.0,Routine - Unscheduled,1005_20160502_103131,Moderate risk vermin infestation,Moderate Risk,low
1008,,801 VALENCIA St,San Francisco,CA,94110,37.759944,-122.421356,"(37.759944, -122.421356)",14155641882,1008_20160121,01/21/2016 12:00:00 AM,98.0,Non-inspection site visit,1008_20151202_103149,Wiping cloths not clean or properly stored or inadequate sanitizer,Low Risk,low
10083,Morning Brew Cafe,401 Sansome St,San Francisco,CA,94111,37.794024,-122.401299,"(37.794024, -122.401299)",,10083_20160608,06/08/2016 12:00:00 AM,88.0,Reinspection/Followup,10083_20160315_103119,Inadequate and inaccessible handwashing facilities,Moderate Risk,medium
10127,AMICI'S EAST COAST PIZZERIA,216 KING STREET,San Francisco,CA,94107,37.777803,-122.392489,"(37.777803, -122.392489)",,10127_20160802,08/02/2016 12:00:00 AM,93.0,Routine - Unscheduled,10127_20160802_103109,Unclean or unsanitary food contact surfaces,High Risk,medium
10131,Cybelle's Front Room,1385 09th Ave,San Francisco,CA,94122,37.758941,-122.48591,"(37.758941, -122.48591)",,10131_20160801,08/01/2016 12:00:00 AM,87.0,Routine - Unscheduled,10131_20160801_103119,Inadequate and inaccessible handwashing facilities,Moderate Risk,medium
10170,Piaza Pellegrini,659 Columbus Ave,San Francisco,CA,94133,37.800851,-122.411062,"(37.800851, -122.411062)",,10170_20160909,09/09/2016 12:00:00 AM,82.0,Routine - Unscheduled,10170_20160909_103114,High risk vermin infestation,High Risk,medium
1018,,2399 MISSION St,San Francisco,CA,94110,37.758684,-122.418975,"(37.758684, -122.418975)",14155821009,1018_20180226,02/26/2018 12:00:00 AM,96.0,Reinspection/Followup,1018_20170718_103124,Inadequately cleaned or sanitized food contact surfaces,Moderate Risk,low
1021,,2815 MISSION St,San Francisco,CA,94110,37.751885,-122.418406,"(37.751885, -122.418406)",14155282131,1021_20160819,08/19/2016 12:00:00 AM,91.0,Routine - Unscheduled,1021_20160819_103149,Wiping cloths not clean or properly stored or inadequate sanitizer,Low Risk,low
10227,The Napper Tandy,3200 24th St,San Francisco,CA,,37.752581,-122.416482,"(37.752581, -122.416482)",,10227_20160510,05/10/2016 12:00:00 AM,83.0,Complaint,10227_20180307_103144,Unapproved or unmaintained equipment or utensils,Low Risk,medium
10235,Nijiya Market,1737 Post St 333,San Francisco,CA,94115,37.785457,-122.430317,"(37.785457, -122.430317)",,10235_20180417,04/17/2018 12:00:00 AM,89.0,Routine - Unscheduled,10235_20180417_103162,Other low risk violation,Low Risk,medium
10238,King of Thai Noodle House,184 O'Farrell St,San Francisco,CA,94102,37.786498,-122.407764,"(37.786498, -122.407764)",+1732317600025602,10238_20180510,05/10/2018 12:00:00 AM,76.0,Reinspection/Followup,10238_20180508_103154,Unclean or degraded floors walls or ceilings,Low Risk,high
1026,,248 DIVISADERO St,San Francisco,CA,94117,37.771117,-122.436976,"(37.771117, -122.436976)",14155979594,1026_20160726,07/26/2016 12:00:00 AM,87.0,Routine - Unscheduled,1026_20160726_103142,Unclean nonfood contact surfaces,Low Risk,low
10280,TENDERLOIN ELEMENTARY SCHOOL,627 TURK ST,San Francisco,CA,94102,37.782034,-122.419777,"(37.782034, -122.419777)",,10280_20180405,04/05/2018 12:00:00 AM,88.0,Routine - Unscheduled,10280_20180405_103131,Moderate risk vermin infestation,Moderate Risk,medium
10282,Jewish Community Center,3200 California,San Francisco,CA,94118,37.787311,-122.446839,"(37.787311, -122.446839)",,10282_20160907,09/07/2016 12:00:00 AM,86.0,Routine - Unscheduled,10282_20160907_103108,Contaminated or adulterated food,High Risk,low
1031,,500 FELL St,San Francisco,CA,94102,37.775538,-122.426264,"(37.775538, -122.426264)",+8862296034564141,1031_20160922,09/22/2016 12:00:00 AM,80.0,Reinspection/Followup,1031_20160915_103138,Improper storage use or identification of toxic substances,Low Risk,low
10332,Harvest Urban Market,191 08th St,San Francisco,CA,94103,37.776384,-122.411684,"(37.776384, -122.411684)",14155620805,10332_20160325,03/25/2016 12:00:00 AM,79.0,Reinspection/Followup,10332_20171002_103133,Foods not protected from contamination,Moderate Risk,high
1036,,803 FILLMORE St,San Francisco,CA,94117,37.776944,-122.431444,"(37.776944, -122.431444)",,1036_20180515,05/15/2018 12:00:00 AM,85.0,Routine - Unscheduled,1036_20180515_103150,Improper or defective plumbing,Low Risk,low
10372,BERNAL HEIGHTS NEIGBORHOOD CENTER,515 CORTLAND AVE,San Francisco,CA,,37.73911,-122.416404,"(37.73911, -122.416404)",14155202142,10372_20180226,02/26/2018 12:00:00 AM,100.0,Routine - Unscheduled,,,,medium
10373,El Tonayense #1,1717 Harrison St,San Francisco,CA,,37.769426,-122.413446,"(37.769426, -122.413446)",14155556127,10373_20180612,06/12/2018 12:00:00 AM,88.0,Routine - Unscheduled,10373_20180612_103156,Permit license or inspection report not posted,Low Risk,low
10376,Good Frikin Chicken,10 29th St,San Francisco,CA,,37.744369,-122.420967,"(37.744369, -122.420967)",,10376_20171226,12/26/2017 12:00:00 AM,91.0,Routine - Unscheduled,10376_20171226_103149,Wiping cloths not clean or properly stored or inadequate sanitizer,Low Risk,low
10377,AT&T - FAB FRY BREAD (LOWER CENTER FIELD) [147480],24 WILLIE MAYS PLAZA,San Francisco,CA,94107,,,,14155904138,10377_20160814,08/14/2016 12:00:00 AM,92.0,Routine - Unscheduled,10377_20160814_103156,Permit license or inspection report not posted,Low Risk,low
10406,Sunset Youth Services,3918 Judah St,San Francisco,CA,,37.76056,-122.504027,"(37.76056, -122.504027)",,10406_20161024,10/24/2016 12:00:00 AM,100.0,Routine - Unscheduled,,,,medium
1042,,553 HAIGHT St,San Francisco,CA,94117,37.771964,-122.431336,"(37.771964, -122.431336)",14155258190,1042_20171211,12/11/2017 12:00:00 AM,92.0,Routine - Unscheduled,1042_20171211_103131,Moderate risk vermin infestation,Moderate Risk,low
1043,,1696 HAYES St,San Francisco,CA,94117,37.774198,-122.444214,"(37.774198, -122.444214)",,1043_20180928,09/28/2018 12:00:00 AM,83.0,Routine - Unscheduled,1043_20180928_103116,Inadequate food safety knowledge or lack of certified food safety manager,Moderate Risk,low
10433,Cafe La Taza,470 Post St,San Francisco,CA,94102,37.788128,-122.409705,"(37.788128, -122.409705)",,10433_20161026,10/26/2016 12:00:00 AM,90.0,Routine - Unscheduled,10433_20161026_103144,Unapproved or unmaintained equipment or utensils,Low Risk,medium
10438,Piraat Pizza,696 Sutter St,San Francisco,CA,94102,37.788858,-122.411754,"(37.788858, -122.411754)",,10438_20161207,12/07/2016 12:00:00 AM,92.0,Routine - Unscheduled,10438_20161207_103131,Moderate risk vermin infestation,Moderate Risk,medium
1047,,1451 HAIGHT St,San Francisco,CA,94117,37.770063,-122.446247,"(37.770063, -122.446247)",14155866981,1047_20180914,09/14/2018 12:00:00 AM,84.0,Reinspection/Followup,1047_20180914_103154,Unclean or degraded floors walls or ceilings,Low Risk,low
10540,Slanted Door Restaurant,1 Ferry Building #3,San Francisco,CA,94111,37.795225,-122.39377,"(37.795225, -122.39377)",66292192067,10540_20180720,07/20/2018 12:00:00 AM,87.0,Reinspection/Followup,10540_20160729_103109,Unclean or unsanitary food contact surfaces,High Risk,low
10615,Rulli Risto-Bar,2300 Chestnut St.,San Francisco,CA,94123,37.800188,-122.441454,"(37.800188, -122.441454)",14155927478,10615_20160713,07/13/2016 12:00:00 AM,96.0,Routine - Unscheduled,10615_20160713_103119,Inadequate and inaccessible handwashing facilities,Moderate Risk,high
10625,Boxed Foods Company,245 Kearny St,San Francisco,CA,94108,37.790453,-122.403994,"(37.790453, -122.403994)",3242454141,10625_20170927,09/27/2017 12:00:00 AM,79.0,Routine - Unscheduled,10625_20170927_103157,Food safety certificate or food handler card not available,Low Risk,high
1065,,2814 19th St,San Francisco,CA,94110,37.760487,-122.410662,"(37.760487, -122.410662)",,1065_20170926,09/26/2017 12:00:00 AM,81.0,Reinspection/Followup,1065_20170906_103145,Improper storage of equipment utensils or linens,Low Risk,low
10668,A16,2355 CHESTNUT ST,San Francisco,CA,94123,37.800043,-122.442097,"(37.800043, -122.442097)",14155227444,10668_20160615,06/15/2016 12:00:00 AM,96.0,Routine - Unscheduled,10668_20160615_103154,Unclean or degraded floors walls or ceilings,Low Risk,high
1075,,2029 MISSION St,San Francisco,CA,94110,37.764384,-122.419566,"(37.764384, -122.419566)",14155433811,1075_20160122,01/22/2016 12:00:00 AM,90.0,Reinspection/Followup,1075_20160111_103154,Unclean or degraded floors walls or ceilings,Low Risk,low
1081,,509 VALENCIA St,San Francisco,CA,94110,37.764744,-122.421803,"(37.764744, -122.421803)",14155251303,1081_20180523,05/23/2018 12:00:00 AM,94.0,Routine - Unscheduled,1081_20180523_103157,Food safety certificate or food handler card not available,Low Risk,low
1085,,333 MARKET St,San Francisco,CA,94105,37.792037,-122.397852,"(37.792037, -122.397852)",,1085_20171207,12/07/2017 12:00:00 AM,96.0,Routine - Unscheduled,1085_20171207_103119,Inadequate and inaccessible handwashing facilities,Moderate Risk,low
10875,Brendas Meat & Three,919 DIVISADERO ST,San Francisco,CA,94115,37.778194,-122.438474,"(37.778194, -122.438474)",14155928657,10875_20171221,12/21/2017 12:00:00 AM,90.0,Complaint,10875_20180411_103131,Moderate risk vermin infestation,Moderate Risk,high
10877,CHINA FIRST INC.,336 CLEMENT ST,San Francisco,CA,94118,37.783038,-122.462982,"(37.783038, -122.462982)",,10877_20160623,06/23/2016 12:00:00 AM,81.0,Routine - Unscheduled,10877_20160623_103120,Moderate risk food holding temperature,Moderate Risk,medium
10886,Taste of Formosa INC,2428 CLEMENT ST,San Francisco,CA,94121,37.782018,-122.485421,"(37.782018, -122.485421)",14155666368,10886_20160318,03/18/2016 12:00:00 AM,70.0,Routine - Unscheduled,10886_20160318_103133,Foods not protected from contamination,Moderate Risk,high
1090,,590 Washington St,San Francisco,CA,94111,37.795614,-122.403104,"(37.795614, -122.403104)",,1090_20160426,04/26/2016 12:00:00 AM,100.0,Routine - Unscheduled,1090_20170504_103148,No thermometers or uncalibrated thermometers,Low Risk,low
10931,ROYAL GROUND COFFEE,3101 Geary Blvd,San Francisco,CA,94118,37.781736,-122.452151,"(37.781736, -122.452151)",,10931_20160309,03/09/2016 12:00:00 AM,80.0,Routine - Unscheduled,10931_20160309_103142,Unclean nonfood contact surfaces,Low Risk,low
10986,7-Eleven Store 2231-33437T,217 Sutter St,San Francisco,CA,94108,37.789721,-122.404268,"(37.789721, -122.404268)",,10986_20160810,08/10/2016 12:00:00 AM,92.0,Routine - Unscheduled,10986_20160810_103150,Improper or defective plumbing,Low Risk,medium
10990,Tak Kee Lee Restaurant,2435 Noriega St,San Francisco,CA,94122,37.753623,-122.489929,"(37.753623, -122.489929)",,10990_20161114,11/14/2016 12:00:00 AM,84.0,Routine - Unscheduled,10990_20161114_103131,Moderate risk vermin infestation,Moderate Risk,low
1103,,4094 18th St,San Francisco,CA,94114,37.760938,-122.434692,"(37.760938, -122.434692)",,1103_20160805,09/14/2018 12:00:00 AM,96.0,Routine - Unscheduled,1103_20180914_103149,Wiping cloths not clean or properly stored or inadequate sanitizer,Low Risk,low
11034,RITA'S CATERING TRUCK,100 Alemany Blvd,San Francisco,CA,94112,37.736917,-122.40892,"(37.736917, -122.40892)",,11034_20160121,01/21/2016 12:00:00 AM,,Reinspection/Followup,11034_20160121_103150,Improper or defective plumbing,Low Risk,low
1111,,753 POLK St,San Francisco,CA,94109,37.783713,-122.419357,"(37.783713, -122.419357)",14155921055,1111_20160621,06/21/2016 12:00:00 AM,87.0,Routine - Unscheduled,1111_20160621_103150,Improper or defective plumbing,Low Risk,low
1122,,2132 CHESTNUT St,San Francisco,CA,94123,37.800547,-122.438494,"(37.800547, -122.438494)",,1122_20171214,12/14/2017 12:00:00 AM,94.0,Routine - Unscheduled,1122_20171214_103150,Improper or defective plumbing,Low Risk,low
1124,,3600 16th St,San Francisco,CA,94114,37.764248,-122.433392,"(37.764248, -122.433392)",,1124_20171205,12/05/2017 12:00:00 AM,89.0,Reinspection/Followup,1124_20171205_103150,Improper or defective plumbing,Low Risk,low
1125,,022 Battery St,San Francisco,CA,94111,37.791554,-122.399565,"(37.791554, -122.399565)",,1125_20160527,05/27/2016 12:00:00 AM,96.0,Routine - Unscheduled,1125_20160527_103149,Wiping cloths not clean or properly stored or inadequate sanitizer,Low Risk,low
1127,,555 California St,San Francisco,CA,94104,37.792773,-122.403567,"(37.792773, -122.403567)",,1127_20160615,06/15/2016 12:00:00 AM,94.0,Routine - Unscheduled,1127_20160615_103142,Unclean nonfood contact surfaces,Low Risk,low
11289,STARBUCKS,280 KING STREET,San Francisco,CA,94107,37.776805,-122.393789,"(37.776805, -122.393789)",,11289_20160805,08/05/2016 12:00:00 AM,90.0,New Construction,11289_20180307_103148,No thermometers or uncalibrated thermometers,Low Risk,medium
11304,HIDIVE,PIER 28 1/2,San Francisco,CA,94105,37.787914,-122.387718,"(37.787914, -122.387718)",,11304_20160819,08/19/2016 12:00:00 AM,90.0,Routine - Unscheduled,11304_20160819_103124,Inadequately cleaned or sanitized food contact surfaces,Moderate Risk,low
1135,,2500 GEARY Blvd,San Francisco,CA,94115,37.782778,-122.444744,"(37.782778, -122.444744)",,1135_20180814,08/14/2018 12:00:00 AM,96.0,Complaint,1135_20180814_103144,Unapproved or unmaintained equipment or utensils,Low Risk,low
11365,LE PETITT'S KITCHEN,265 GOLDEN GATE AVE,San Francisco,CA,94109,37.78169,-122.414823,"(37.78169, -122.414823)",,11365_20170414,04/14/2017 12:00:00 AM,98.0,Complaint,11365_20180425_103154,Unclean or degraded floors walls or ceilings,Low Risk,medium
11379,ALAMO SQUARE MARKET,535 SCOTT ST,San Francisco,CA,94117,37.774824,-122.436094,"(37.774824, -122.436094)",,11379_20180515,05/15/2018 12:00:00 AM,85.0,Reinspection/Followup,11379_20160928_103119,Inadequate and inaccessible handwashing facilities,Moderate Risk,medium
1139,,28 VAN NESS,San Francisco,CA,94102,37.775867,-122.419356,"(37.775867, -122.419356)",14155430177,1139_20160629,06/29/2016 12:00:00 AM,80.0,Reinspection/Followup,1139_20160620_103103,High risk food holding temperature,High Risk,low
11416,El Beach Burrito,3914 Judah St,San Francisco,CA,,37.760851,-122.503998,"(37.760851, -122.503998)",,11416_20160502,05/02/2016 12:00:00 AM,94.0,Routine - Unscheduled,11416_20160502_103116,Inadequate food safety knowledge or lack of certified food safety manager,Moderate Risk,low
1144,,1475 Polk St,San Francisco,CA,94109,37.790324,-122.420664,"(37.790324, -122.420664)",,1144_20160929,09/29/2016 12:00:00 AM,79.0,Routine - Unscheduled,1144_20160929_103124,Inadequately cleaned or sanitized food contact surfaces,Moderate Risk,low
1146,,2327 Polk St,San Francisco,CA,94109,37.798274,-122.422264,"(37.798274, -122.422264)",+82-2-7295598,1146_20180223,02/23/2018 12:00:00 AM,77.0,Routine - Unscheduled,1146_20180223_103103,High risk food holding temperature,High Risk,low
1147,,501 Buckingham Way,San Francisco,CA,94132,37.730105,-122.478441,"(37.730105, -122.478441)",14155680331,1147_20160422,04/22/2016 12:00:00 AM,98.0,Routine - Unscheduled,1147_20160422_103154,Unclean or degraded floors walls or ceilings,Low Risk,low
11487,AT&T - GHIRARDELLI CHOCOLATE CO. (CLUB LEVEL) [147802],24 WILLIE MAYS PL,San Francisco,CA,94107,,,,,11487_20160814,08/14/2016 12:00:00 AM,100.0,Routine - Unscheduled,11487_20180911_103119,Inadequate and inaccessible handwashing facilities,Moderate Risk,low
11488,AT&T - GHIRARDELLI CHOCOLATE CO. (VIEW LEVEL) [147802],24 Willie Mays Pl,San Francisco,CA,94107,,,,,11488_20160814,08/14/2016 12:00:00 AM,100.0,Routine - Unscheduled,11488_20180911_103121,Inadequate procedures or records for time as a public health control,Moderate Risk,low
11491,Boulette's Larder,1 Ferry Building,San Francisco,CA,94111,37.795184,-122.393819,"(37.795184, -122.393819)",,11491_20160330,03/30/2016 12:00:00 AM,100.0,Routine - Unscheduled,,,,medium
11492,Burgermeister,759 Columbus Ave,San Francisco,CA,94133,37.801696,-122.412257,"(37.801696, -122.412257)",,11492_20160219,02/19/2016 12:00:00 AM,88.0,Routine - Unscheduled,11492_20160219_103124,Inadequately cleaned or sanitized food contact surfaces,Moderate Risk,medium
1151,,1793 CHURCH St,San Francisco,CA,94131,37.742325,-122.426476,"(37.742325, -122.426476)",,1151_20160505,05/05/2016 12:00:00 AM,90.0,Routine - Unscheduled,1151_20160505_103154,Unclean or degraded floors walls or ceilings,Low Risk,low
1154,,506 Valencia St,San Francisco,CA,94103,37.764678,-122.421905,"(37.764678, -122.421905)",14155625023,1154_20160912,09/12/2016 12:00:00 AM,76.0,Routine - Unscheduled,1154_20160912_103119,Inadequate and inaccessible handwashing facilities,Moderate Risk,low
1156,,"170 O'Farrell St, 1st Floor",San Francisco,CA,94102,37.786548,-122.407313,"(37.786548, -122.407313)",,1156_20160401,04/01/2016 12:00:00 AM,92.0,Routine - Unscheduled,1156_20160401_103157,Food safety certificate or food handler card not available,Low Risk,low
11568,Mijita,1 Ferry Building,San Francisco,CA,94111,37.795225,-122.39377,"(37.795225, -122.39377)",,11568_20161018,10/18/2016 12:00:00 AM,,Reinspection/Followup,11568_20160803_103120,Moderate risk food holding temperature,Moderate Risk,medium
1159,,1797 Haight St,San Francisco,CA,94117,37.769363,-122.451667,"(37.769363, -122.451667)",14155667717,1159_20180411,04/11/2018 12:00:00 AM,78.0,Non-inspection site visit,1159_20170131_103114,High risk vermin infestation,High Risk,low
11594,The Grand Nightclub,520 4th St,San Francisco,CA,94107,37.779237,-122.397709,"(37.779237, -122.397709)",,11594_20180315,03/15/2018 12:00:00 AM,96.0,Routine - Unscheduled,11594_20180315_103131,Moderate risk vermin infestation,Moderate Risk,medium
11610,On Lok,225 30th St,San Francisco,CA,94131,37.742129,-122.425006,"(37.742129, -122.425006)",14155644359,11610_20161227,12/27/2016 12:00:00 AM,90.0,Routine - Unscheduled,11610_20161227_103119,Inadequate and inaccessible handwashing facilities,Moderate Risk,high
11860,Colibri Mexican Bistro,438 Geary St,San Francisco,CA,94102,37.787098,-122.410594,"(37.787098, -122.410594)",,11860_20160331,03/31/2016 12:00:00 AM,88.0,Routine - Unscheduled,11860_20160331_103150,Improper or defective plumbing,Low Risk,medium
1188,,776 Arguello Blvd,San Francisco,CA,94118,37.775723,-122.458445,"(37.775723, -122.458445)",,1188_20161109,11/09/2016 12:00:00 AM,100.0,Routine - Unscheduled,,,,low
1191,,0537 BALBOA St,San Francisco,CA,94118,37.77714,-122.464412,"(37.77714, -122.464412)",14150521330,1191_20170202,02/02/2017 12:00:00 AM,92.0,Routine - Unscheduled,1191_20170202_103144,Unapproved or unmaintained equipment or utensils,Low Risk,low
1193,,3419 CALIFORNIA St,San Francisco,CA,94118,37.786754,-122.450476,"(37.786754, -122.450476)",,1193_20160729,07/29/2016 12:00:00 AM,96.0,New Construction,1193_20181009_103154,Unclean or degraded floors walls or ceilings,Low Risk,low
1194,,3585 CALIFORNIA St,San Francisco,CA,94118,37.786453,-122.452807,"(37.786453, -122.452807)",,1194_20181001,10/01/2018 12:00:00 AM,100.0,Routine - Unscheduled,1194_20161017_103120,Moderate risk food holding temperature,Moderate Risk,low
1199,,3440 GEARY Blvd,San Francisco,CA,94118,37.781507,-122.456176,"(37.781507, -122.456176)",,1199_20160414,04/14/2016 12:00:00 AM,90.0,Routine - Unscheduled,1199_20160414_103120,Moderate risk food holding temperature,Moderate Risk,low
12005,PORTOLA BAPTIST CHURCH,225 PIOCHE STREET,San Francisco,CA,94112,37.728469,-122.420606,"(37.728469, -122.420606)",,12005_20171012,10/12/2017 12:00:00 AM,98.0,Routine - Unscheduled,12005_20171012_103145,Improper storage of equipment utensils or linens,Low Risk,low
1203,,4403 GEARY Blvd,San Francisco,CA,94118,37.780834,-122.46659,"(37.780834, -122.46659)",,1203_20180802,08/02/2018 12:00:00 AM,77.0,Routine - Unscheduled,1203_20180802_103132,Improper thawing methods,Moderate Risk,low
1204,,5301 GEARY Blvd,San Francisco,CA,94121,37.780394,-122.47641,"(37.780394, -122.47641)",,1204_20171222,12/22/2017 12:00:00 AM,92.0,New Construction,1204_20160209_103154,Unclean or degraded floors walls or ceilings,Low Risk,low
12083,OOLA RESTAURANT & BAR,860A FOLSOM STREET,San Francisco,CA,94103,37.78093,-122.402669,"(37.78093, -122.402669)",,12083_20180626,06/26/2018 12:00:00 AM,83.0,Routine - Unscheduled,12083_20180626_103103,High risk food holding temperature,High Risk,low
1219,PAZZO on Henry St,2 HENRY ADAMS St,San Francisco,CA,94103,37.769287,-122.403974,"(37.769287, -122.403974)",14155556315,1219_20161031,10/31/2016 12:00:00 AM,91.0,Routine - Unscheduled,1219_20161031_103103,High risk food holding temperature,High Risk,high
12199,El Gallo Giro,3055 23rd St,San Francisco,CA,,37.754218,-122.413285,"(37.754218, -122.413285)",14155572661,12199_20160628,06/28/2016 12:00:00 AM,92.0,Routine - Unscheduled,12199_20160628_103154,Unclean or degraded floors walls or ceilings,Low Risk,medium
12285,Peet's Coffee Kiosk,1580 Valencia St,San Francisco,CA,94110,37.748118,-122.420474,"(37.748118, -122.420474)",,12285_20160727,07/27/2016 12:00:00 AM,100.0,Routine - Unscheduled,,,,low
1231,Yamo Restaurant San Francisco,3406 18th St,San Francisco,CA,94110,37.761882,-122.419599,"(37.761882, -122.419599)",,1231_20160420,04/20/2016 12:00:00 AM,88.0,Routine - Unscheduled,1231_20160420_103144,Unapproved or unmaintained equipment or utensils,Low Risk,medium
1232,Sunflower Cafe San Francisco,284 O'Farrell St,San Francisco,CA,94102,37.786316,-122.409371,"(37.786316, -122.409371)",,1232_20160523,05/23/2016 12:00:00 AM,98.0,Routine - Unscheduled,1232_20160523_103156,Permit license or inspection report not posted,Low Risk,medium
12344,The Village Market & Pizza,750 Font Blvd,San Francisco,CA,,37.723462,-122.483012,"(37.723462, -122.483012)",14155374525,12344_20160511,05/11/2016 12:00:00 AM,96.0,Routine - Unscheduled,12344_20160511_103120,Moderate risk food holding temperature,Moderate Risk,low
1241,Banwich San Francisco,1105 TARAVAL St,San Francisco,CA,94116,37.742895,-122.477898,"(37.742895, -122.477898)",,1241_20160523,05/23/2016 12:00:00 AM,90.0,Routine - Unscheduled,1241_20160523_103120,Moderate risk food holding temperature,Moderate Risk,low
1243,JAVA SUPREME San Francisco,0703 GUERRERO St,San Francisco,CA,94110,37.759934,-122.423553,"(37.759934, -122.423553)",14155201832,1243_20180522,05/22/2018 12:00:00 AM,94.0,Routine - Unscheduled,1243_20180522_103124,Inadequately cleaned or sanitized food contact surfaces,Moderate Risk,low
1249,KABABAYAN FAST FOOD San Francisco,2706 MISSION St,San Francisco,CA,94110,37.753691,-122.418657,"(37.753691, -122.418657)",14155929635,1249_20180515,05/15/2018 12:00:00 AM,74.0,Routine - Unscheduled,1249_20180515_103109,Unclean or unsanitary food contact surfaces,High Risk,high
1261,REVERIE COFFEE CAFE on COLE St,848 COLE St,San Francisco,CA,94117,37.766097,-122.449997,"(37.766097, -122.449997)",14155240200,1261_20171212,12/12/2017 12:00:00 AM,88.0,Reinspection/Followup,1261_20171212_103139,Improper food storage,Low Risk,high
1262,"NORTH BEACH PIZZA, STANYAN St",800 STANYAN St,San Francisco,CA,94117,37.767286,-122.453075,"(37.767286, -122.453075)",14155752300,1262_20171215,12/15/2017 12:00:00 AM,90.0,Routine - Unscheduled,1262_20171215_103144,Unapproved or unmaintained equipment or utensils,Low Risk,low
1263,"LAVA JAVA, STANYAN St",852 STANYAN St,San Francisco,CA,94117,37.766812,-122.452974,"(37.766812, -122.452974)",14155757375,1263_20171201,12/01/2017 12:00:00 AM,94.0,Routine - Unscheduled,1263_20171201_103120,Moderate risk food holding temperature,Moderate Risk,high
1265,"STARBUCKS COFFEE CO., STANYAN St",744 IRVING St,San Francisco,CA,94122,37.764088,-122.465981,"(37.764088, -122.465981)",14155850888,1265_20160603,06/03/2016 12:00:00 AM,98.0,Routine - Unscheduled,,,,medium
12682,Jewish Community High School of the Bay,1835 Ellis St.,San Francisco,CA,94115,37.781813,-122.436381,"(37.781813, -122.436381)",,12682_20170428,04/28/2017 12:00:00 AM,,Complaint Reinspection/Followup,,,,medium
1269,"STARBUCKS, STANYAN St",201 SPEAR St,San Francisco,CA,94105,37.790944,-122.392051,"(37.790944, -122.392051)",,1269_20180904,09/04/2018 12:00:00 AM,92.0,Routine - Unscheduled,1269_20180904_103154,Unclean or degraded floors walls or ceilings,Low Risk,medium
1274,MORNING DUE,Unnamed ST,San Francisco,CA,94104,37.762939,-122.428473,"(37.762939, -122.428473)",14155627156,1274_20180809,08/09/2018 12:00:00 AM,86.0,Routine - Unscheduled,1274_20180809_103145,Improper storage of equipment utensils or linens,Low Risk,low
12768,VASQUEZ COFFEE CO,50 MENDELL STREET #1,San Francisco,CA,94124,37.743419,-122.383536,"(37.743419, -122.383536)",,12768_20160713,07/13/2016 12:00:00 AM,92.0,Routine - Unscheduled,12768_20160713_103156,Permit license or inspection report not posted,Low Risk,medium
12788,LA TERRA,511 HARRISON STREET,San Francisco,CA,94105,37.785856,-122.393158,"(37.785856, -122.393158)",,12788_20171012,10/12/2017 12:00:00 AM,96.0,Non-inspection site visit,12788_20171017_103124,Inadequately cleaned or sanitized food contact surfaces,Moderate Risk,medium
1280,AMASIA HIDE'S SUSHI BAR,Unnamed ST,San Francisco,CA,94114,37.766774,-122.433306,"(37.766774, -122.433306)",9838427011,1280_20180327,03/27/2018 12:00:00 AM,92.0,Routine - Unscheduled,1280_20180327_103116,Inadequate food safety knowledge or lack of certified food safety manager,Moderate Risk,high
1289,ORPHAN ANDY'S,Unnamed ST,San Francisco,CA,94114,37.758132,-122.435614,"(37.758132, -122.435614)",,1289_20161206,12/06/2016 12:00:00 AM,94.0,Routine - Unscheduled,1289_20161206_103133,Foods not protected from contamination,Moderate Risk,low
1294,ANCHOR OYSTER BAR INC.,Unnamed ST,San Francisco,CA,94114,37.759613,-122.434817,"(37.759613, -122.434817)",14155433990,1294_20171213,12/13/2017 12:00:00 AM,93.0,Reinspection/Followup,1294_20170106_103102,Unclean hands or improper use of gloves,High Risk,low
1296,TAQUERIA EL BUEN SABOR,Unnamed ST,San Francisco,CA,94112,37.761743,-122.421492,"(37.761743, -122.421492)",14155588745,1296_20180511,05/11/2018 12:00:00 AM,88.0,Reinspection/Followup,1296_20160927_103120,Moderate risk food holding temperature,Moderate Risk,low
12970,LA COCINA,2948 FOLSOM STREET,San Francisco,CA,94110,37.750134,-122.413935,"(37.750134, -122.413935)",,12970_20180419,04/19/2018 12:00:00 AM,100.0,Reinspection/Followup,12970_20180928_103154,Unclean or degraded floors walls or ceilings,Low Risk,low
1300,WE BE SUSHI,Unnamed ST,San Francisco,CA,94110,37.755824,-122.420986,"(37.755824, -122.420986)",14155820607,1300_20161019,10/19/2016 12:00:00 AM,74.0,Reinspection/Followup,1300_20171005_103109,Unclean or unsanitary food contact surfaces,High Risk,low
1304,RAIN TREE CAFE,Unnamed ST,San Francisco,CA,94122,37.764128,-122.464961,"(37.764128, -122.464961)",,1304_20180711,07/11/2018 12:00:00 AM,85.0,Routine - Unscheduled,1304_20180711_103103,High risk food holding temperature,High Risk,low
13041,Coi,373 broadway St,San Francisco,CA,94133,37.798229,-122.40349,"(37.798229, -122.40349)",,13041_20160803,08/03/2016 12:00:00 AM,98.0,Routine - Unscheduled,13041_20160803_103157,Food safety certificate or food handler card not available,Low Risk,medium
13062,Everett Middle School,450 Church St,San Francisco,CA,,37.763794,-122.428617,"(37.763794, -122.428617)",,13062_20180904,09/04/2018 12:00:00 AM,98.0,Routine - Unscheduled,13062_20180904_103144,Unapproved or unmaintained equipment or utensils,Low Risk,medium
1318,GORDO TAQUERIA #6,Unnamed ST,San Francisco,CA,94121,37.780517,-122.477804,"(37.780517, -122.477804)",,1318_20160129,01/29/2016 12:00:00 AM,81.0,Foodborne Illness Investigation,1318_20160712_103105,Improper cooling methods,High Risk,low
13218,"LESLIE A. HENNESSY, INC.",545 02nd St,San Francisco,CA,94107,37.782504,-122.392843,"(37.782504, -122.392843)",,13218_20180626,06/26/2018 12:00:00 AM,85.0,Reinspection/Followup,13218_20170829_103131,Moderate risk vermin infestation,Moderate Risk,medium
1322,"LA MEDITERRANEE I, INC.",Unnamed ST,San Francisco,CA,94115,37.789961,-122.433962,"(37.789961, -122.433962)",,1322_20160927,09/27/2016 12:00:00 AM,91.0,Reinspection/Followup,1322_20180926_103109,Unclean or unsanitary food contact surfaces,High Risk,low
13226,CALIFORNIA WINE MERCHANT,2113 CHESTNUT ST,San Francisco,CA,94123,37.800534,-122.438217,"(37.800534, -122.438217)",,13226_20160415,04/15/2016 12:00:00 AM,98.0,Routine - Unscheduled,13226_20160415_103145,Improper storage of equipment utensils or linens,Low Risk,medium
1323,THE BLACK HORSE LONDON DELI,Unnamed ST,San Francisco,CA,94123,37.798528,-122.424394,"(37.798528, -122.424394)",,1323_20171127,11/27/2017 12:00:00 AM,94.0,Routine - Unscheduled,1323_20171127_103124,Inadequately cleaned or sanitized food contact surfaces,Moderate Risk,low
13313,MV Solano,Pier 41,San Francisco,CA,94133,37.808494,-122.412,"(37.808494, -122.412)",5967798700,13313_20160518,05/18/2016 12:00:00 AM,100.0,Routine - Unscheduled,,,,low
1332,CHLOE'S,Unnamed ST,San Francisco,CA,94114,37.748594,-122.427116,"(37.748594, -122.427116)",14155644116,1332_20160513,05/13/2016 12:00:00 AM,86.0,Reinspection/Followup,1332_20160427_103120,Moderate risk food holding temperature,Moderate Risk,low
1337,Sabor De San Miguel,Unnamed ST,San Francisco,CA,94110,37.744726,-122.420395,"(37.744726, -122.420395)",14155645866,1337_20180525,05/25/2018 12:00:00 AM,90.0,Routine - Unscheduled,1337_20180525_103154,Unclean or degraded floors walls or ceilings,Low Risk,low
13374,Rooftop Middle School,500 Corbett St.,San Francisco,CA,94114,37.757398,-122.4442,"(37.757398, -122.4442)",14155526757,13374_20160422,04/22/2016 12:00:00 AM,83.0,Routine - Unscheduled,13374_20160422_103143,Inadequate warewashing facilities or equipment,Low Risk,high
1339,HIGHER GROUNDS,Unnamed ST,San Francisco,CA,94131,37.734483,-122.43368,"(37.734483, -122.43368)",14155582933,1339_20160414,04/14/2016 12:00:00 AM,90.0,Routine - Unscheduled,1339_20160414_103120,Moderate risk food holding temperature,Moderate Risk,low
1341,SPIKE'S COFFEES & TEAS,Unnamed ST,San Francisco,CA,94114,37.759253,-122.43503,"(37.759253, -122.43503)",14155625573,1341_20160826,08/26/2016 12:00:00 AM,100.0,Routine - Unscheduled,,,,low
13426,Trader Joe's,401 Bay St,San Francisco,CA,94133,37.80557,-122.413626,"(37.80557, -122.413626)",,13426_20171003,10/03/2017 12:00:00 AM,92.0,Complaint,13426_20161109_103161,Low risk vermin infestation,Low Risk,medium
13427,Extreme Pizza,3911 Alemany Bl.,San Francisco,CA,94132,37.711185,-122.46779,"(37.711185, -122.46779)",14150999800,13427_20160803,08/03/2016 12:00:00 AM,94.0,Routine - Unscheduled,13427_20160803_103144,Unapproved or unmaintained equipment or utensils,Low Risk,high
13428,SAFEWAY #2606,298 KING STREET,San Francisco,CA,94107,37.776491,-122.394175,"(37.776491, -122.394175)",,13428_20171221,12/21/2017 12:00:00 AM,90.0,New Construction,13428_20161108_103152,Unclean unmaintained or improperly constructed toilet facilities,Low Risk,medium
1344,Beanery,Unnamed ST,San Francisco,CA,94122,37.758941,-122.48591,"(37.758941, -122.48591)",,1344_20160609,06/09/2016 12:00:00 AM,100.0,Routine - Unscheduled,1344_20170925_103119,Inadequate and inaccessible handwashing facilities,Moderate Risk,low
1345,Cordon Bleu,Unnamed ST,San Francisco,CA,94109,37.790683,-122.420264,"(37.790683, -122.420264)",,1345_20170928,09/28/2017 12:00:00 AM,81.0,Routine - Unscheduled,1345_20170928_103129,Insufficient hot water or running water,Moderate Risk,low
1347,CREPES ON COLE,Unnamed ST,San Francisco,CA,94117,37.765778,-122.450184,"(37.765778, -122.450184)",14155661800,1347_20180821,08/21/2018 12:00:00 AM,92.0,Complaint,1347_20181106_103147,Inadequate ventilation or lighting,Low Risk,low
1350,KING OF THAI NOODLE HOUSE,Unnamed ST,San Francisco,CA,94118,37.782833,-122.46615,"(37.782833, -122.46615)",['0' 'not '],1350_20160518,05/18/2016 12:00:00 AM,77.0,Routine - Unscheduled,1350_20160518_103116,Inadequate food safety knowledge or lack of certified food safety manager,Moderate Risk,low
1351,EXIT THEATRE,Unnamed ST,San Francisco,CA,94102,37.784288,-122.410224,"(37.784288, -122.410224)",,1351_20160629,06/29/2016 12:00:00 AM,96.0,Routine - Unscheduled,1351_20160629_103129,Insufficient hot water or running water,Moderate Risk,low
1352,LA TORTILLA,Unnamed ST,San Francisco,CA,94114,37.760954,-122.434935,"(37.760954, -122.434935)",14155863990,1352_20180918,09/18/2018 12:00:00 AM,86.0,Foodborne Illness Investigation,1352_20161129_103154,Unclean or degraded floors walls or ceilings,Low Risk,low
1354,SUSHI TIME,2275 MARKET St,San Francisco,CA,94114,37.764697,-122.432322,"(37.764697, -122.432322)",14155552280,1354_20160928,09/28/2016 12:00:00 AM,92.0,Routine - Unscheduled,1354_20160928_103138,Improper storage use or identification of toxic substances,Low Risk,high
1359,STARBUCKS COFFEE CO.,1750 DIVISADERO St,San Francisco,CA,94115,37.785907,-122.439957,"(37.785907, -122.439957)",,1359_20180522,05/22/2018 12:00:00 AM,96.0,Routine - Unscheduled,1359_20180522_103131,Moderate risk vermin infestation,Moderate Risk,medium
1362,RESTAURANTE FAMILIAR,4499 MISSION St,San Francisco,CA,94112,37.726402,-122.433476,"(37.726402, -122.433476)",14155336100,1362_20160720,07/20/2016 12:00:00 AM,84.0,Routine - Unscheduled,1362_20160720_103105,Improper cooling methods,High Risk,high
13623,CAFE MADELEINE,149 NEW MONTGOMERY STREET,San Francisco,CA,94105,37.786803,-122.399681,"(37.786803, -122.399681)",,13623_20160829,08/29/2016 12:00:00 AM,87.0,Reinspection/Followup,13623_20160810_103142,Unclean nonfood contact surfaces,Low Risk,medium
1366,CAFE LA TAZA,2475A MISSION,San Francisco,CA,94110,37.757436,-122.41888,"(37.757436, -122.41888)",14155827715,1366_20180307,03/07/2018 12:00:00 AM,90.0,Reinspection/Followup,1366_20160602_103154,Unclean or degraded floors walls or ceilings,Low Risk,low
13671,AFC SUSHI @SAFEWAY 2606,298 KING STREET,San Francisco,CA,94107,37.776491,-122.394175,"(37.776491, -122.394175)",8363215440,13671_20180227,02/27/2018 12:00:00 AM,89.0,Routine - Unscheduled,13671_20180227_103102,Unclean hands or improper use of gloves,High Risk,high
1368,Starbucks Coffee,701 Battery St,San Francisco,CA,94111,37.797754,-122.400925,"(37.797754, -122.400925)",,1368_20160425,04/25/2016 12:00:00 AM,91.0,Routine - Unscheduled,1368_20160425_103109,Unclean or unsanitary food contact surfaces,High Risk,medium
13753,Taboun,203 Parnassus Ave,San Francisco,CA,,37.764574,-122.45295,"(37.764574, -122.45295)",,13753_20171219,12/19/2017 12:00:00 AM,91.0,Reinspection/Followup,13753_20160822_103154,Unclean or degraded floors walls or ceilings,Low Risk,medium
1381,PEBBLE'S CAFE,2852 Diamond St,San Francisco,CA,94131,37.73382,-122.434093,"(37.73382, -122.434093)",14155332270,1381_20160415,04/15/2016 12:00:00 AM,96.0,Reinspection/Followup,1381_20160415_103161,Low risk vermin infestation,Low Risk,high
13814,Go Go Market & Deli,99 09th St,San Francisco,CA,94103,37.774722,-122.406761,"(37.774722, -122.406761)",14155863536,13814_20160930,09/30/2016 12:00:00 AM,82.0,Routine - Unscheduled,13814_20160930_103124,Inadequately cleaned or sanitized food contact surfaces,Moderate Risk,low
13831,Focaccia Market Bakery,119 Sacramento St A,San Francisco,CA,94111,37.794543,-122.397037,"(37.794543, -122.397037)",,13831_20160815,08/15/2016 12:00:00 AM,77.0,Reinspection/Followup,13831_20160808_103148,No thermometers or uncalibrated thermometers,Low Risk,medium
13838,Judahlicious Juice,3906 Judah st,San Francisco,CA,94122,37.760528,-122.503991,"(37.760528, -122.503991)",,13838_20160502,05/02/2016 12:00:00 AM,100.0,Routine - Unscheduled,13838_20170703_103157,Food safety certificate or food handler card not available,Low Risk,low
1389,GASPARE'S PIZZA HOUSE & REST.,5546 GEARY Blvd,San Francisco,CA,94121,37.78047,-122.478832,"(37.78047, -122.478832)",,1389_20161026,10/26/2016 12:00:00 AM,78.0,Routine - Unscheduled,1389_20161026_103119,Inadequate and inaccessible handwashing facilities,Moderate Risk,medium
1396,Sauce SF,131 GOUGH St,San Francisco,CA,94102,37.774644,-122.422554,"(37.774644, -122.422554)",,1396_20171212,12/12/2017 12:00:00 AM,94.0,Reinspection/Followup,1396_20160614_103161,Low risk vermin infestation,Low Risk,medium
1398,YUMMA'S MED GRILL,721 IRVING St,San Francisco,CA,94122,37.764053,-122.465539,"(37.764053, -122.465539)",,1398_20180302,03/02/2018 12:00:00 AM,88.0,Routine - Unscheduled,1398_20180302_103154,Unclean or degraded floors walls or ceilings,Low Risk,medium
1399,La Copa Loca,3150 22nd St,San Francisco,CA,94110,37.755538,-122.417982,"(37.755538, -122.417982)",479135545,1399_20160503,05/03/2016 12:00:00 AM,98.0,Routine - Unscheduled,1399_20160503_103149,Wiping cloths not clean or properly stored or inadequate sanitizer,Low Risk,low
14005,Yuyu Sushi,1559 A Sloat St,San Francisco,CA,94132,37.733901,-122.490726,"(37.733901, -122.490726)",14155666477,14005_20171205,12/05/2017 12:00:00 AM,90.0,Routine - Unscheduled,14005_20171205_103120,Moderate risk food holding temperature,Moderate Risk,low
14071,SUBWAY #30196,700 04th St,San Francisco,CA,94107,37.776858,-122.394729,"(37.776858, -122.394729)",,14071_20180307,03/07/2018 12:00:00 AM,92.0,Routine - Unscheduled,14071_20180307_103120,Moderate risk food holding temperature,Moderate Risk,medium
14075,BLUE BOTTLE COFFEE LLC,315 LINDEN ST,San Francisco,CA,94102,37.77634,-122.423099,"(37.77634, -122.423099)",,14075_20180727,07/27/2018 12:00:00 AM,94.0,Complaint,14075_20160711_103129,Insufficient hot water or running water,Moderate Risk,medium
1413,STARBUCKS,5455 GEARY Blvd,San Francisco,CA,94121,37.780305,-122.477825,"(37.780305, -122.477825)",,1413_20180220,02/20/2018 12:00:00 AM,100.0,Routine - Unscheduled,,,,medium
1426,SWEET DELIGHT BAKERY,4476A MISSION,San Francisco,CA,94112,37.726117,-122.433817,"(37.726117, -122.433817)",14155336786,1426_20171215,12/15/2017 12:00:00 AM,70.0,Reinspection/Followup,1426_20161026_103103,High risk food holding temperature,High Risk,high
14285,Lee's Deli,75 Battery St,San Francisco,CA,94111,37.791864,-122.399724,"(37.791864, -122.399724)",,14285_20161227,12/27/2016 12:00:00 AM,78.0,Routine - Unscheduled,14285_20161227_103102,Unclean hands or improper use of gloves,High Risk,medium
14303,Mango Medley,3911 Judah St.,San Francisco,CA,94122,37.760454,-122.503939,"(37.760454, -122.503939)",14155683228,14303_20171018,10/18/2017 12:00:00 AM,98.0,Non-inspection site visit,14303_20160224_103154,Unclean or degraded floors walls or ceilings,Low Risk,low
1434,HOLEY BAGEL BAKERY,3872 24th St,San Francisco,CA,94114,37.751628,-122.429122,"(37.751628, -122.429122)",6594986227,1434_20161205,12/05/2016 12:00:00 AM,96.0,Routine - Unscheduled,1434_20161205_103141,Improper food labeling or menu misrepresentation,Low Risk,high
1442,Waterfront Bakery,2801 Leavenworth St,San Francisco,CA,94133,37.807155,-122.419004,"(37.807155, -122.419004)",,1442_20160311,03/11/2016 12:00:00 AM,94.0,Reinspection/Followup,1442_20180607_103153,Inadequate dressing rooms or improper storage of personal items,Low Risk,medium
14429,Little Star Pizza,846 Divisadero,San Francisco,CA,94117,37.777488,-122.438257,"(37.777488, -122.438257)",,14429_20180424,04/24/2018 12:00:00 AM,100.0,Routine - Unscheduled,,,,medium
1444,Starbucks Coffee,1560 Van Ness Ave,San Francisco,CA,94111,37.790086,-122.422167,"(37.790086, -122.422167)",,1444_20160408,04/08/2016 12:00:00 AM,96.0,Routine - Unscheduled,1444_20160408_103131,Moderate risk vermin infestation,Moderate Risk,medium
1452,CAFE V,1525 FOLSOM St,San Francisco,CA,94103,37.771538,-122.414372,"(37.771538, -122.414372)",,1452_20171205,12/05/2017 12:00:00 AM,89.0,Routine - Unscheduled,1452_20171205_103132,Improper thawing methods,Moderate Risk,medium
1454,KISS SEAFOOD,1708 LAGUNA St,San Francisco,IL,94115,37.786838,-122.428317,"(37.786838, -122.428317)",,1454_20160616,06/16/2016 12:00:00 AM,94.0,Routine - Unscheduled,1454_20160616_103116,Inadequate food safety knowledge or lack of certified food safety manager,Moderate Risk,medium
14568,THE Art Bistro,6900 GEARY BLVD,San Francisco,CA,94121,37.779718,-122.493662,"(37.779718, -122.493662)",UNDE,FINED,05/02/2016 12:00:00 AM,88.0,Routine - Unscheduled,14568_20160502_103119,Inadequate and inaccessible handwashing facilities,Moderate Risk,high
14577,KIM HOANG CAFE & FAST FOOD,246-250 LEAVENWORTH ST,San Francisco,CA,94102,37.783249,-122.414065,"(37.783249, -122.414065)",,14577_20160512,05/12/2016 12:00:00 AM,89.0,Reinspection/Followup,14577_20160509_103119,Inadequate and inaccessible handwashing facilities,Moderate Risk,medium
1466,Whole Foods Steep Brew,1765 CALIFORNIA St,San Francisco,IL,94109,37.790193,-122.423437,"(37.790193, -122.423437)",,1466_20160815,08/15/2016 12:00:00 AM,98.0,Routine - Unscheduled,1466_20160815_103144,Unapproved or unmaintained equipment or utensils,Low Risk,medium
14688,Eagle Cafe,111 Pine St,San Francisco,CA,94111,37.792343,-122.398567,"(37.792343, -122.398567)",,14688_20160831,08/31/2016 12:00:00 AM,96.0,Routine - Unscheduled,14688_20160831_103148,No thermometers or uncalibrated thermometers,Low Risk,low
1469,Holiday Inn Express-Main Kitchen,550 North Point St,San Francisco,IL,94133,37.806288,-122.416244,"(37.806288, -122.416244)",,1469_20160502,05/02/2016 12:00:00 AM,100.0,Routine - Unscheduled,1469_20161128_103150,Improper or defective plumbing,Low Risk,medium
14740,Eggette Cafe,3136 Noriega St,San Francisco,CA,94122,37.753338,-122.497572,"(37.753338, -122.497572)",,14740_20160429,04/29/2016 12:00:00 AM,100.0,Routine - Unscheduled,14740_20180702_103142,Unclean nonfood contact surfaces,Low Risk,medium
14743,Polly Ann Ice Cream,3138 Noriega St.,San Francisco,CA,94122,37.753338,-122.497572,"(37.753338, -122.497572)",,14743_20160429,04/29/2016 12:00:00 AM,96.0,Routine - Unscheduled,14743_20160429_103129,Insufficient hot water or running water,Moderate Risk,medium
1482,A2 CAFE,450 IRWIN St,San Francisco,IL,94107,37.767224,-122.399039,"(37.767224, -122.399039)",,1482_20160309,03/09/2016 12:00:00 AM,90.0,Routine - Unscheduled,1482_20160309_103147,Inadequate ventilation or lighting,Low Risk,medium
1486,STARBUCKS COFFEE,675 PORTOLA Dr,San Francisco,IL,94127,37.744736,-122.452666,"(37.744736, -122.452666)",14155689477,1486_20180718,07/18/2018 12:00:00 AM,100.0,Routine - Unscheduled,1486_20170913_103154,Unclean or degraded floors walls or ceilings,Low Risk,high
1487,PEET'S COFFEE & TEA,101 02nd St 150,San Francisco,IL,94105,37.787834,-122.399522,"(37.787834, -122.399522)",,1487_20161221,12/21/2016 12:00:00 AM,96.0,Routine - Unscheduled,1487_20161221_103142,Unclean nonfood contact surfaces,Low Risk,low
14909,White Swan Inn,845 Bush St,San Francisco,CA,94108,37.789834,-122.411247,"(37.789834, -122.411247)",,14909_20161026,10/26/2016 12:00:00 AM,98.0,Routine - Unscheduled,14909_20161026_103154,Unclean or degraded floors walls or ceilings,Low Risk,medium
14910,Petite Auberge,863 Bush St,San Francisco,CA,94108,37.789813,-122.411447,"(37.789813, -122.411447)",,14910_20161026,10/26/2016 12:00:00 AM,98.0,Routine - Unscheduled,14910_20161026_103161,Low risk vermin infestation,Low Risk,medium
1493,Peet's Coffee & Tea,1 Ferry Building  C3,San Francisco,IL,94111,37.795184,-122.393819,"(37.795184, -122.393819)",,1493_20160331,03/31/2016 12:00:00 AM,92.0,Routine - Unscheduled,1493_20160331_103151,Inadequate or unsanitary refuse containers or area or no garbage service,Low Risk,low
1496,FOUR SEASONS HOTEL- EMPLOYEE  CAFETERIA,757 MARKET St BASE.,San Francisco,IL,94103,37.786476,-122.404852,"(37.786476, -122.404852)",,1496_20170626,06/26/2017 12:00:00 AM,91.0,Reinspection/Followup,1496_20170616_103109,Unclean or unsanitary food contact surfaces,High Risk,medium
14971,San Francisco Public Montessori,2340 Jackson St,San Francisco,CA,94115,37.792628,-122.433514,"(37.792628, -122.433514)",14155743768,14971_20160919,09/19/2016 12:00:00 AM,96.0,Routine - Unscheduled,14971_20160919_103119,Inadequate and inaccessible handwashing facilities,Moderate Risk,high
1505,Starbucks Coffee Company #6765,359 Grant Ave,San Francisco,IL,94108,37.790376,-122.405544,"(37.790376, -122.405544)",,1505_20161212,12/12/2016 12:00:00 AM,100.0,New Construction,1505_20171017_103131,Moderate risk vermin infestation,Moderate Risk,medium
15055,Ono Hawaiin BBQ,1501 Sloat #A,San Francisco,CA,94132,37.733974,-122.489729,"(37.733974, -122.489729)",,15055_20160701,07/01/2016 12:00:00 AM,87.0,Reinspection/Followup,15055_20160628_103131,Moderate risk vermin infestation,Moderate Risk,medium
1508,Nonna Rose Restaurant,Foot of Taylor St #7,San Francisco,IL,94133,37.795202,-122.413169,"(37.795202, -122.413169)",,1508_20160608,06/08/2016 12:00:00 AM,90.0,Reinspection/Followup,1508_20180220_103139,Improper food storage,Low Risk,low
1509,CLUB WAZIEMA,543 DIVISADERO St,San Francisco,IL,94117,37.774674,-122.437764,"(37.774674, -122.437764)",,1509_20161109,11/09/2016 12:00:00 AM,90.0,Routine - Unscheduled,1509_20161109_103131,Moderate risk vermin infestation,Moderate Risk,medium
15120,Nordstrom Espresso Bar,865 Market Street,San Francisco,CA,94103,37.784317,-122.407563,"(37.784317, -122.407563)",,15120_20160706,07/06/2016 12:00:00 AM,88.0,Routine - Unscheduled,15120_20160706_103156,Permit license or inspection report not posted,Low Risk,medium
1520,STARBUCKS #5852,199 FREMONT St,San Francisco,IL,94103,37.789314,-122.395192,"(37.789314, -122.395192)",,1520_20171108,11/08/2017 12:00:00 AM,100.0,Routine - Unscheduled,,,,medium
1526,CHOUQUET'S,2500 WASHINGTON St,San Francisco,IL,94115,37.791607,-122.434563,"(37.791607, -122.434563)",,1526_20160810,08/10/2016 12:00:00 AM,80.0,Reinspection/Followup,1526_20160719_103144,Unapproved or unmaintained equipment or utensils,Low Risk,medium
1527,CITY'S CHOICE,301 05th St,San Francisco,IL,94107,37.780263,-122.403323,"(37.780263, -122.403323)",14155891888,1527_20171003,10/03/2017 12:00:00 AM,90.0,Reinspection/Followup,1527_20180509_103131,Moderate risk vermin infestation,Moderate Risk,low
15279,Deli World,18 Ocean Ave.,San Francisco,CA,94112,37.724174,-122.435859,"(37.724174, -122.435859)",14155333111,15279_20161012,10/12/2016 12:00:00 AM,92.0,Routine - Unscheduled,15279_20161012_103154,Unclean or degraded floors walls or ceilings,Low Risk,high
1529,STARBUCKS,490 BRANNAN St,San Francisco,IL,94107,37.778694,-122.396139,"(37.778694, -122.396139)",14155240256,1529_20160801,08/01/2016 12:00:00 AM,98.0,New Construction,1529_20180109_103154,Unclean or degraded floors walls or ceilings,Low Risk,high
1532,Neiman Marcus On The Square,"150 Stockton St, Ground Floor",San Francisco,IL,94108,37.791586,-122.408452,"(37.791586, -122.408452)",,1532_20160630,06/30/2016 12:00:00 AM,91.0,Reinspection/Followup,1532_20160524_103149,Wiping cloths not clean or properly stored or inadequate sanitizer,Low Risk,low
1534,Cafe Niebaum Coppola,916 Kearny St,San Francisco,IL,94133,37.796517,-122.405167,"(37.796517, -122.405167)",,1534_20161122,11/22/2016 12:00:00 AM,88.0,Routine - Unscheduled,1534_20161122_103150,Improper or defective plumbing,Low Risk,medium
1542,I LUV TERIYAKI AND SUSHI,270 Potrero Ave,San Francisco,IL,94103,37.766293,-122.407671,"(37.766293, -122.407671)",14155432005,1542_20180406,04/06/2018 12:00:00 AM,87.0,Routine - Unscheduled,1542_20180406_103102,Unclean hands or improper use of gloves,High Risk,high
1544,OMNI S.F. Hotel - Food & Beverage Storeroom,"500 California St, Basement",San Francisco,IL,94104,37.792888,-122.403135,"(37.792888, -122.403135)",,1544_20160311,03/11/2016 12:00:00 AM,98.0,Routine - Unscheduled,1544_20160311_103150,Improper or defective plumbing,Low Risk,medium
1549,Cafe Bellini,235 Powell St,San Francisco,IL,94102,37.786974,-122.408174,"(37.786974, -122.408174)",,1549_20160607,06/07/2016 12:00:00 AM,83.0,Complaint,1549_20160205_103119,Inadequate and inaccessible handwashing facilities,Moderate Risk,medium
15535,Boudin Bakery & Cafe,160 Jefferson St 1st Floor,San Francisco,CA,94133,37.808352,-122.415157,"(37.808352, -122.415157)",0,15535_20161227,12/27/2016 12:00:00 AM,92.0,Reinspection/Followup,15535_20171211_103154,Unclean or degraded floors walls or ceilings,Low Risk,high
1555,Fino,1 Cosmo Pl,San Francisco,IL,94109,37.788094,-122.41176,"(37.788094, -122.41176)",,1555_20160311,03/11/2016 12:00:00 AM,100.0,Routine - Unscheduled,1555_20170626_103133,Foods not protected from contamination,Moderate Risk,low
1564,Cornell Hotel - Jeanne D'Arc,715 Bush St,San Francisco,IL,94108,37.790103,-122.409117,"(37.790103, -122.409117)",,1564_20160819,08/19/2016 12:00:00 AM,98.0,Routine - Unscheduled,1564_20160819_103154,Unclean or degraded floors walls or ceilings,Low Risk,medium
1565,Uncle Vito's Pizza,700 Bush St,San Francisco,CA,94108,37.790219,-122.408849,"(37.790219, -122.408849)",,1565_20160826,08/26/2016 12:00:00 AM,79.0,Routine - Unscheduled,1565_20160826_103154,Unclean or degraded floors walls or ceilings,Low Risk,medium
1566,Asia Chinese Food #2,350 Bay St,San Francisco,CA,94133,37.805758,-122.412804,"(37.805758, -122.412804)",,1566_20180523,05/23/2018 12:00:00 AM,85.0,Routine - Unscheduled,1566_20180523_103157,Food safety certificate or food handler card not available,Low Risk,medium
1567,TANPOPO,1740 BUCHANAN St,San Francisco,CA,94115,37.785961,-122.429776,"(37.785961, -122.429776)",14155347132,1567_20160419,04/19/2016 12:00:00 AM,87.0,Routine - Unscheduled,1567_20160419_103139,Improper food storage,Low Risk,high
1568,901 Columbus Cafe,901 Columbus Ave,San Francisco,CA,94133,37.803056,-122.414186,"(37.803056, -122.414186)",,1568_20180405,04/05/2018 12:00:00 AM,90.0,Routine - Unscheduled,1568_20180405_103124,Inadequately cleaned or sanitized food contact surfaces,Moderate Risk,medium
1571,SF Bay Club - Court Cafe,150 Greenwich St,San Francisco,CA,94111,37.803208,-122.402534,"(37.803208, -122.402534)",,1571_20160413,04/13/2016 12:00:00 AM,85.0,Routine - Unscheduled,1571_20160413_103109,Unclean or unsanitary food contact surfaces,High Risk,medium
15738,Lao Table,149 2nd St,San Francisco,CA,94105,37.787343,-122.398902,"(37.787343, -122.398902)",na,15738_20160915,06/13/2016 12:00:00 AM,100.0,New Construction,,,,medium
15752,Peet's Coffee & Tea,2  Embarcadero Center  #R2113,San Francisco,CA,94111,37.794818,-122.398474,"(37.794818, -122.398474)",,15752_20160706,07/06/2016 12:00:00 AM,100.0,Reinspection/Followup,15752_20160414_103142,Unclean nonfood contact surfaces,Low Risk,low
1579,Nick's Lighthouse,Foot of Taylor St 5,San Francisco,CA,94133,37.802479,-122.411234,"(37.802479, -122.411234)",5534330338,1579_20171211,12/11/2017 12:00:00 AM,92.0,Routine - Unscheduled,1579_20171211_103120,Moderate risk food holding temperature,Moderate Risk,low
15806,Vital Tea Leaf,1044 Grant Ave,San Francisco,CA,94133,37.796597,-122.406696,"(37.796597, -122.406696)",,15806_20180302,03/02/2018 12:00:00 AM,98.0,Routine - Unscheduled,15806_20180302_103157,Food safety certificate or food handler card not available,Low Risk,medium
1582,Caffe Bianco,39 Sutter St,San Francisco,CA,94104,37.790102,-122.401158,"(37.790102, -122.401158)",,1582_20171212,12/12/2017 12:00:00 AM,83.0,Reinspection/Followup,1582_20160426_103144,Unapproved or unmaintained equipment or utensils,Low Risk,medium
1584,ESPERPENTO RESTAURANT,3295 22nd St,San Francisco,CA,94110,37.755303,-122.420649,"(37.755303, -122.420649)",,1584_20160907,09/07/2016 12:00:00 AM,86.0,Reinspection/Followup,1584_20160818_103154,Unclean or degraded floors walls or ceilings,Low Risk,low
1594,Young's Restaurant,601 Kearny St,San Francisco,CA,94108,37.793702,-122.404653,"(37.793702, -122.404653)",,1594_20171207,12/07/2017 12:00:00 AM,76.0,Reinspection/Followup,1594_20160921_103133,Foods not protected from contamination,Moderate Risk,medium
1595,Zazie,941 COLE St,San Francisco,CA,94117,37.765343,-122.449914,"(37.765343, -122.449914)",14155565332,1595_20171214,12/14/2017 12:00:00 AM,92.0,Routine - Unscheduled,1595_20171214_103120,Moderate risk food holding temperature,Moderate Risk,low
1596,BURGERMEISTER,86 Carl St,San Francisco,CA,94117,37.765848,-122.449664,"(37.765848, -122.449664)",14155564433,1596_20171201,12/01/2017 12:00:00 AM,96.0,Routine - Unscheduled,1596_20171201_103144,Unapproved or unmaintained equipment or utensils,Low Risk,high
1598,Cafe Bean,800 Sutter St,San Francisco,CA,94109,37.788587,-122.413795,"(37.788587, -122.413795)",,1598_20160418,04/18/2016 12:00:00 AM,90.0,Complaint,1598_20160505_103133,Foods not protected from contamination,Moderate Risk,medium
16047,THE RICHMOND,615 Balboa St,San Francisco,CA,94118,37.777123,-122.46534,"(37.777123, -122.46534)",,16047_20160216,02/16/2016 12:00:00 AM,98.0,Routine - Unscheduled,16047_20160216_103162,Other low risk violation,Low Risk,medium
1608,CLADDAGH COFFEE,951 Geneva Ave,San Francisco,CA,94112,37.715997,-122.440048,"(37.715997, -122.440048)",,1608_20161209,12/09/2016 12:00:00 AM,94.0,Routine - Unscheduled,1608_20161209_103133,Foods not protected from contamination,Moderate Risk,medium
1609,Tung Sing Restaurant,4015 24th St,San Francisco,CA,94114,37.751373,-122.432319,"(37.751373, -122.432319)",14155648582,1609_20180529,05/29/2018 12:00:00 AM,76.0,Reinspection/Followup,1609_20180425_103103,High risk food holding temperature,High Risk,high
1613,BRICK HOUSE CAFE,426 BRANNAN St,San Francisco,CA,94107,37.779534,-122.395099,"(37.779534, -122.395099)",,1613_20180426,04/26/2018 12:00:00 AM,85.0,Complaint,1613_20180426_103114,High risk vermin infestation,High Risk,medium
1614,STARBUCKS COFFEE #5646,455 MARKET St,San Francisco,CA,94105,37.791227,-122.398872,"(37.791227, -122.398872)",,1614_20161209,12/09/2016 12:00:00 AM,100.0,Routine - Unscheduled,1614_20171107_103148,No thermometers or uncalibrated thermometers,Low Risk,medium
1615,Starbucks Coffee,27 Drumm St,San Francisco,CA,94111,37.794184,-122.396524,"(37.794184, -122.396524)",,1615_20160504,05/04/2016 12:00:00 AM,98.0,Routine - Unscheduled,1615_20160504_103154,Unclean or degraded floors walls or ceilings,Low Risk,medium
1617,CLEMENT BBQ RESTAURANT,617 CLEMENT St,San Francisco,CA,94118,37.782843,-122.4659,"(37.782843, -122.4659)",,1617_20160520,05/20/2016 12:00:00 AM,71.0,Non-inspection site visit,1617_20180522_103119,Inadequate and inaccessible handwashing facilities,Moderate Risk,medium
1619,BENDERS BAR & GRILL,800-806 SOUTH VAN NESS Ave,San Francisco,CA,94110,37.76031,-122.417123,"(37.76031, -122.417123)",14155558050,1619_20160628,06/28/2016 12:00:00 AM,94.0,Routine - Unscheduled,1619_20160628_103157,Food safety certificate or food handler card not available,Low Risk,high
1626,LUPA TRATTORIA,4109 24th St,San Francisco,CA,94114,37.751243,-122.434529,"(37.751243, -122.434529)",14155644664,1626_20161003,10/03/2016 12:00:00 AM,92.0,Routine - Unscheduled,1626_20161003_103142,Unclean nonfood contact surfaces,Low Risk,high
16286,Starbucks Coffee (Store #9743),425 Battery St,San Francisco,CA,94111,37.795366,-122.400435,"(37.795366, -122.400435)",,16286_20161118,11/18/2016 12:00:00 AM,88.0,Routine - Unscheduled,16286_20161118_103143,Inadequate warewashing facilities or equipment,Low Risk,medium
1631,Casa Mexicana Restaurant,3917 24th St,San Francisco,CA,94114,37.751513,-122.430179,"(37.751513, -122.430179)",,1631_20160906,09/06/2016 12:00:00 AM,77.0,Routine - Unscheduled,1631_20160906_103131,Moderate risk vermin infestation,Moderate Risk,medium
1632,SWEET CHINITO,3100 MISSION St,San Francisco,CA,94110,37.748164,-122.418241,"(37.748164, -122.418241)",['2463384040' '3357164497'],1632_20160810,08/10/2016 12:00:00 AM,92.0,Routine - Unscheduled,1632_20160810_103120,Moderate risk food holding temperature,Moderate Risk,high
16329,Oscar Burger & Deli,1850 Cesar Chavez St,San Francisco,CA,94124,37.749798,-122.395962,"(37.749798, -122.395962)",,16329_20171018,10/18/2017 12:00:00 AM,83.0,Reinspection/Followup,16329_20170727_103138,Improper storage use or identification of toxic substances,Low Risk,medium
16349,L's Cafe,2871 24th St,San Francisco,CA,94110,37.752764,-122.409588,"(37.752764, -122.409588)",636255118,16349_20180227,02/27/2018 12:00:00 AM,90.0,Routine - Unscheduled,16349_20180227_103157,Food safety certificate or food handler card not available,Low Risk,low
1635,KEZAR PUB,770 Stanyan St,San Francisco,CA,94117,37.767828,-122.453227,"(37.767828, -122.453227)",14155389292,1635_20171215,12/15/2017 12:00:00 AM,91.0,Routine - Unscheduled,1635_20171215_103114,High risk vermin infestation,High Risk,high
1636,AXUM,698 Haight St,San Francisco,CA,94117,37.771738,-122.433583,"(37.771738, -122.433583)",14155257912,1636_20180221,02/21/2018 12:00:00 AM,88.0,New Construction,1636_20181003_103132,Improper thawing methods,Moderate Risk,high
1641,MARTHA & BROS. COFFEE CO,1551 Church St,San Francisco,CA,94131,37.745974,-122.426856,"(37.745974, -122.426856)",14155641166,1641_20160812,08/12/2016 12:00:00 AM,84.0,Routine - Unscheduled,1641_20160812_103145,Improper storage of equipment utensils or linens,Low Risk,high
16424,Sam's Market,580 Precita Ave,San Francisco,CA,94110,37.747496,-122.40957,"(37.747496, -122.40957)",,16424_20151229,12/29/2015 12:00:00 AM,92.0,Routine - Unscheduled,16424_20151229_103119,Inadequate and inaccessible handwashing facilities,Moderate Risk,medium
16432,AFC Sushi @ Safeway #1206,300 Bay St,San Francisco,CA,94133,37.805758,-122.412774,"(37.805758, -122.412774)",,16432_20160516,05/16/2016 12:00:00 AM,94.0,Routine - Unscheduled,16432_20160516_103145,Improper storage of equipment utensils or linens,Low Risk,medium
16441,Hawaiian Drive Inn,2600 San Bruno Ave,San Francisco,CA,94134,37.728718,-122.404101,"(37.728718, -122.404101)",6142672153,16441_20161206,12/06/2016 12:00:00 AM,82.0,Routine - Unscheduled,16441_20161206_103154,Unclean or degraded floors walls or ceilings,Low Risk,high
1649,COURTYARD BY MARRIOTT-RESTAURANT,299 02nd St,San Francisco,CA,94105,37.785614,-122.396693,"(37.785614, -122.396693)",,1649_20161206,12/06/2016 12:00:00 AM,98.0,Routine - Unscheduled,1649_20161206_103145,Improper storage of equipment utensils or linens,Low Risk,low
16513,Evergreen Garden Restaurant,3100 18th St,San Francisco,CA,94110,37.762249,-122.413092,"(37.762249, -122.413092)",,16513_20180226,02/26/2018 12:00:00 AM,83.0,Routine - Unscheduled,16513_20180226_103144,Unapproved or unmaintained equipment or utensils,Low Risk,medium
1652,STARBUCKS,201 03rd St,San Francisco,CA,94105,37.785037,-122.400432,"(37.785037, -122.400432)",,1652_20160915,09/15/2016 12:00:00 AM,78.0,New Construction,1652_20180615_103114,High risk vermin infestation,High Risk,medium
1664,PANDA EXPRESS,865 MARKET St C24,San Francisco,CA,94103,37.784317,-122.407563,"(37.784317, -122.407563)",14155249775,1664_20160617,06/17/2016 12:00:00 AM,96.0,Routine - Unscheduled,1664_20160617_103149,Wiping cloths not clean or properly stored or inadequate sanitizer,Low Risk,high
1668,SILVER CREST DONUT SHOP,340 BAYSHORE Blvd,San Francisco,CA,94124,37.742456,-122.405766,"(37.742456, -122.405766)",14155820753,1668_20180501,05/01/2018 12:00:00 AM,94.0,Routine - Unscheduled,1668_20180501_103120,Moderate risk food holding temperature,Moderate Risk,high
1671,Just For You Cafe Inc.,732 22ND St,San Francisco,CA,94107,37.757948,-122.388862,"(37.757948, -122.388862)",,1671_20151215,12/15/2015 12:00:00 AM,87.0,Reinspection/Followup,1671_20170206_103109,Unclean or unsanitary food contact surfaces,High Risk,medium
1672,WORKING GIRLS' CAFE III,100 SPEAR St 140,San Francisco,CA,94105,37.792308,-122.393809,"(37.792308, -122.393809)",,1672_20170310,03/10/2017 12:00:00 AM,94.0,Routine - Unscheduled,1672_20170310_103148,No thermometers or uncalibrated thermometers,Low Risk,medium
1673,RUBIN'S,101 SPEAR St,San Francisco,CA,94105,37.792577,-122.393992,"(37.792577, -122.393992)",14155971545,1673_20170608,06/08/2017 12:00:00 AM,79.0,Routine - Unscheduled,1673_20170608_103105,Improper cooling methods,High Risk,low
1674,NORDSTROM CAFE BISTRO,865 MARKET St,San Francisco,CA,94103,37.784317,-122.407563,"(37.784317, -122.407563)",9999999999,1674_20160429,04/29/2016 12:00:00 AM,82.0,Routine - Unscheduled,1674_20160429_103116,Inadequate food safety knowledge or lack of certified food safety manager,Moderate Risk,high
16751,Nihon,1779 Folsom St,San Francisco,CA,94103,37.768654,-122.415586,"(37.768654, -122.415586)",,16751_20180712,07/12/2018 12:00:00 AM,96.0,Reinspection/Followup,16751_20171107_103161,Low risk vermin infestation,Low Risk,low
16784,Muskaan Cuisine of India,101 Spear St 22,San Francisco,CA,94105,37.792577,-122.393992,"(37.792577, -122.393992)",,16784_20170331,03/31/2017 12:00:00 AM,96.0,Routine - Unscheduled,16784_20170331_103120,Moderate risk food holding temperature,Moderate Risk,low
1685,"New Lun Ting Cafe, Inc",670 Jackson St,San Francisco,CA,94133,37.796098,-122.406275,"(37.796098, -122.406275)",,1685_20160510,05/10/2016 12:00:00 AM,76.0,Reinspection/Followup,1685_20161019_103105,Improper cooling methods,High Risk,medium
1687,Sai's Vietnamese Restaurant,505 Washington St,San Francisco,CA,94111,37.795659,-122.40172,"(37.795659, -122.40172)",,1687_20160823,08/23/2016 12:00:00 AM,96.0,Reinspection/Followup,1687_20160525_103142,Unclean nonfood contact surfaces,Low Risk,medium
1692,Plouf,40 Belden Pl,San Francisco,CA,94104,37.791318,-122.403757,"(37.791318, -122.403757)",,1692_20160809,08/09/2016 12:00:00 AM,82.0,Routine - Unscheduled,1692_20160809_103151,Inadequate or unsanitary refuse containers or area or no garbage service,Low Risk,medium
1699,TWILIGHT CAFE,2600 McALLISTER St,San Francisco,CA,94118,37.775698,-122.455034,"(37.775698, -122.455034)",14155376115,1699_20181009,10/09/2018 12:00:00 AM,94.0,Routine - Unscheduled,1699_20181009_103124,Inadequately cleaned or sanitized food contact surfaces,Moderate Risk,high
1700,Raintree Cafe,118 West Portal Ave,San Francisco,CA,94127,37.739413,-122.46744,"(37.739413, -122.46744)",14155249000,1700_20180222,02/22/2018 12:00:00 AM,93.0,Routine - Unscheduled,1700_20180222_103103,High risk food holding temperature,High Risk,high
1702,EL TOREADOR FONDA MEXICANA RESTAURANT,050 WEST PORTAL Ave,San Francisco,CA,94127,37.74033,-122.466412,"(37.74033, -122.466412)",,1702_20180911,09/11/2018 12:00:00 AM,86.0,Routine - Unscheduled,1702_20180911_103124,Inadequately cleaned or sanitized food contact surfaces,Moderate Risk,medium
1703,Lanna Restaurant,1245 Noriega St,San Francisco,CA,94122,37.754153,-122.477279,"(37.754153, -122.477279)",,1703_20160502,05/02/2016 12:00:00 AM,90.0,Routine - Unscheduled,1703_20160502_103142,Unclean nonfood contact surfaces,Low Risk,medium
1710,Emporio Rulli Il Caffe at Union Square,225 Stockton St,San Francisco,CA,94108,37.787936,-122.406712,"(37.787936, -122.406712)",,1710_20160422,04/22/2016 12:00:00 AM,91.0,Reinspection/Followup,1710_20170221_103124,Inadequately cleaned or sanitized food contact surfaces,Moderate Risk,medium
1712,SEA BREEZE CAFE,3940 JUDAH St,San Francisco,CA,94122,37.760508,-122.504572,"(37.760508, -122.504572)",,1712_20180515,05/15/2018 12:00:00 AM,96.0,Routine - Unscheduled,1712_20180515_103154,Unclean or degraded floors walls or ceilings,Low Risk,medium
1724,CAFE MUMS,1800 SUTTER St,San Francisco,CA,94115,37.786498,-122.430283,"(37.786498, -122.430283)",14155936986,1724_20180515,05/15/2018 12:00:00 AM,86.0,Reinspection/Followup,1724_20160309_103131,Moderate risk vermin infestation,Moderate Risk,high
1726,KFC/TACO BELL,4285 MISSION St,San Francisco,CA,94112,37.728979,-122.431008,"(37.728979, -122.431008)",,1726_20180730,07/30/2018 12:00:00 AM,91.0,Complaint,1726_20160728_103102,Unclean hands or improper use of gloves,High Risk,medium
1727,Sun Rise Restaurant,3126 24th St,San Francisco,CA,94110,37.752508,-122.414681,"(37.752508, -122.414681)",,1727_20160715,07/15/2016 12:00:00 AM,88.0,Routine - Unscheduled,1727_20160715_103131,Moderate risk vermin infestation,Moderate Risk,medium
1734,SAI JAI THAI,771 O'FARRELL St,San Francisco,CA,94109,37.785182,-122.417409,"(37.785182, -122.417409)",14155675774,1734_20160311,03/11/2016 12:00:00 AM,82.0,Routine - Unscheduled,1734_20160311_103120,Moderate risk food holding temperature,Moderate Risk,high
17346,AFC Sushi @ Safeway #667,5290 Diamond Heights Blvd,San Francisco,CA,94131,37.744076,-122.438684,"(37.744076, -122.438684)",,17346_20180918,09/18/2018 12:00:00 AM,100.0,Routine - Unscheduled,17346_20171031_103144,Unapproved or unmaintained equipment or utensils,Low Risk,medium
1741,Osha Thai Noodle Cafe,696 Geary St,San Francisco,CA,94102,37.786598,-122.414583,"(37.786598, -122.414583)",,1741_20160520,05/20/2016 12:00:00 AM,92.0,Routine - Unscheduled,1741_20160520_103161,Low risk vermin infestation,Low Risk,medium
1742,McAllister Grocery & Deli,136 McAllister St,San Francisco,CA,94102,37.780916,-122.414312,"(37.780916, -122.414312)",,1742_20170214,02/14/2017 12:00:00 AM,83.0,Routine - Unscheduled,1742_20170214_103114,High risk vermin infestation,High Risk,low
17423,Project Open Hand,100 Diamond St,San Francisco,CA,,37.760689,-122.437252,"(37.760689, -122.437252)",,17423_20160826,08/26/2016 12:00:00 AM,100.0,Routine - Unscheduled,,,,medium
17508,"International Hotel Senior Housing, Inc",848 Kearny St,San Francisco,CA,94108,37.795778,-122.404978,"(37.795778, -122.404978)",,17508_20180515,05/15/2018 12:00:00 AM,100.0,Routine - Unscheduled,17508_20170419_103102,Unclean hands or improper use of gloves,High Risk,medium
1754,Fisherman's Pizzeria Inc [#50],2800 Leavenworth St,San Francisco,CA,94133,37.807167,-122.418936,"(37.807167, -122.418936)",['4524541560' 'UNDE'],1754_20161202,12/02/2016 12:00:00 AM,86.0,Routine - Unscheduled,1754_20161202_103119,Inadequate and inaccessible handwashing facilities,Moderate Risk,high
1757,Dar Bar Pakistani/Indian Cusine,1412 Polk St,San Francisco,CA,94109,37.789784,-122.420455,"(37.789784, -122.420455)",+62-361-751863,1757_20170928,09/28/2017 12:00:00 AM,86.0,Routine - Unscheduled,1757_20170928_103131,Moderate risk vermin infestation,Moderate Risk,high
17570,Tres Agaves,130 Townsend St,San Francisco,CA,94107,37.780084,-122.391278,"(37.780084, -122.391278)",,17570_20180514,05/14/2018 12:00:00 AM,84.0,Routine - Unscheduled,17570_20180514_103131,Moderate risk vermin infestation,Moderate Risk,medium
17612,Laguna Grove Care,624 Laguna St,San Francisco,CA,94102,37.776955,-122.426292,"(37.776955, -122.426292)",,17612_20180104,01/04/2018 12:00:00 AM,100.0,Routine - Unscheduled,17612_20170403_103150,Improper or defective plumbing,Low Risk,low
17616,SUGAR LOUNGE,377 Hayes St,San Francisco,CA,94102,37.776917,-122.422231,"(37.776917, -122.422231)",,17616_20180906,09/06/2018 12:00:00 AM,96.0,Routine - Unscheduled,17616_20180906_103133,Foods not protected from contamination,Moderate Risk,medium
1764,FLORIO,1915 FILLMORE St,San Francisco,CA,94115,37.787553,-122.433574,"(37.787553, -122.433574)",14155774300,1764_20160531,05/31/2016 12:00:00 AM,93.0,Routine - Unscheduled,1764_20160531_103103,High risk food holding temperature,High Risk,high
17647,Enjoy Vegetarian Restaurant,754 KIRKHAM St,San Francisco,CA,94122,37.760198,-122.469081,"(37.760198, -122.469081)",,17647_20180330,03/30/2018 12:00:00 AM,88.0,Routine - Unscheduled,17647_20180330_103149,Wiping cloths not clean or properly stored or inadequate sanitizer,Low Risk,medium
1768,Subway Sandwiches,1199 Sutter St,San Francisco,CA,94109,37.787783,-122.419737,"(37.787783, -122.419737)",,1768_20180718,07/18/2018 12:00:00 AM,100.0,Routine - Unscheduled,1768_20160705_103112,No hot water or running water,High Risk,medium
17689,New Mings Restaurant,641 Mission St,San Francisco,CA,94105,37.787148,-122.400822,"(37.787148, -122.400822)",,17689_20170905,09/05/2017 12:00:00 AM,74.0,Routine - Unscheduled,17689_20170905_103144,Unapproved or unmaintained equipment or utensils,Low Risk,medium
17723,Sushi Suki Restaurant,360 C West Portal Ave,San Francisco,CA,94127,37.738857,-122.457584,"(37.738857, -122.457584)",,17723_20180222,02/22/2018 12:00:00 AM,84.0,Routine - Unscheduled,17723_20180222_103124,Inadequately cleaned or sanitized food contact surfaces,Moderate Risk,low
17750,Squat and Gobble Cafe,2263 Chestnut St,San Francisco,CA,94123,37.800254,-122.440467,"(37.800254, -122.440467)",,17750_20161024,10/24/2016 12:00:00 AM,81.0,Routine - Unscheduled,17750_20161024_103144,Unapproved or unmaintained equipment or utensils,Low Risk,medium
17762,Patxi's Chicago Pizza,511 Hayes St,San Francisco,CA,94102,37.776593,-122.425017,"(37.776593, -122.425017)",,17762_20161011,10/11/2016 12:00:00 AM,82.0,Routine - Unscheduled,17762_20161011_103145,Improper storage of equipment utensils or linens,Low Risk,low
17779,New Bosworth Market,145 Bosworth,San Francisco,CA,94112,37.733466,-122.428086,"(37.733466, -122.428086)",,17779_20160527,05/27/2016 12:00:00 AM,67.0,Routine - Unscheduled,17779_20160527_103150,Improper or defective plumbing,Low Risk,medium
1778,Academy Bar & Kitchen,1800 Fillmore St,San Francisco,CA,94115,37.786498,-122.430283,"(37.786498, -122.430283)",14155771800,1778_20171213,12/13/2017 12:00:00 AM,94.0,Routine - Unscheduled,1778_20171213_103144,Unapproved or unmaintained equipment or utensils,Low Risk,high
17822,Peet's Coffee & Tea,601 Van Ness Ave Suite A,San Francisco,CA,94102,37.781454,-122.420644,"(37.781454, -122.420644)",,17822_20160802,08/02/2016 12:00:00 AM,100.0,New Construction,17822_20180327_103144,Unapproved or unmaintained equipment or utensils,Low Risk,medium
1784,Capannina,1809 UNION St,San Francisco,CA,94123,37.797855,-122.429064,"(37.797855, -122.429064)",,1784_20180723,07/23/2018 12:00:00 AM,90.0,Routine - Unscheduled,1784_20180723_103119,Inadequate and inaccessible handwashing facilities,Moderate Risk,medium
1788,EXECUTIVE CAFE,150 EXECUTIVE PARK Blvd 2000,San Francisco,CA,94134,37.711323,-122.393371,"(37.711323, -122.393371)",14155532612,1788_20160926,09/26/2016 12:00:00 AM,87.0,New Construction,1788_20170124_103124,Inadequately cleaned or sanitized food contact surfaces,Moderate Risk,high
1791,GARDEN HOUSE CAFE,3117 CLEMENT St,San Francisco,CA,94121,37.781597,-122.492544,"(37.781597, -122.492544)",,1791_20180516,05/16/2018 12:00:00 AM,96.0,Routine - Unscheduled,1791_20180516_103154,Unclean or degraded floors walls or ceilings,Low Risk,medium
1792,ATLAS CAFE,3049 20th St,San Francisco,CA,94110,37.759073,-122.411418,"(37.759073, -122.411418)",,1792_20160603,06/03/2016 12:00:00 AM,90.0,Routine - Unscheduled,1792_20160603_103131,Moderate risk vermin infestation,Moderate Risk,medium
17933,Nile Cafe,544 Jones St,San Francisco,CA,94102,37.786307,-122.413026,"(37.786307, -122.413026)",,17933_20160226,02/26/2016 12:00:00 AM,84.0,Routine - Unscheduled,17933_20160226_103144,Unapproved or unmaintained equipment or utensils,Low Risk,medium
17946,Pizzeria Delfina,3611 18th St,San Francisco,CA,,37.761657,-122.424347,"(37.761657, -122.424347)",,17946_20180913,09/13/2018 12:00:00 AM,92.0,Complaint,17946_20180510_103121,Inadequate procedures or records for time as a public health control,Moderate Risk,medium
17947,Um Ma Son,5850 GEARY BLVD,San Francisco,CA,94121,37.780278,-122.482311,"(37.780278, -122.482311)",['0' '2916966966'],17947_20160510,05/10/2016 12:00:00 AM,84.0,Routine - Unscheduled,17947_20160510_103133,Foods not protected from contamination,Moderate Risk,high
1796,PHILIPPINE DELICACIES,5609 MISSION St,San Francisco,CA,94112,37.711286,-122.446607,"(37.711286, -122.446607)",,1796_20171211,12/11/2017 12:00:00 AM,81.0,Reinspection/Followup,1796_20161005_103154,Unclean or degraded floors walls or ceilings,Low Risk,medium
1797,TIO CHILOS GRILL,2872 24th St,San Francisco,CA,94110,37.752807,-122.409752,"(37.752807, -122.409752)",,1797_20160113,01/13/2016 12:00:00 AM,85.0,Routine - Unscheduled,1797_20160113_103105,Improper cooling methods,High Risk,medium
1798,CHEVRON #1512,1000 HARRISON St,San Francisco,CA,94103,37.777113,-122.404379,"(37.777113, -122.404379)",,1798_20160818,08/18/2016 12:00:00 AM,98.0,Routine - Unscheduled,1798_20160818_103142,Unclean nonfood contact surfaces,Low Risk,low
1800,BRAVO PIZZA,5145 MISSION St,San Francisco,CA,94112,37.716583,-122.440834,"(37.716583, -122.440834)",not ,available,12/07/2017 12:00:00 AM,84.0,Routine - Unscheduled,1800_20171207_103133,Foods not protected from contamination,Moderate Risk,high
18047,Las Palmeras,2721 Mission St,San Francisco,CA,94110,37.753463,-122.418536,"(37.753463, -122.418536)",,18047_20180912,09/12/2018 12:00:00 AM,77.0,Reinspection/Followup,18047_20171205_103131,Moderate risk vermin infestation,Moderate Risk,medium
18079,Joe's coffee Shop,6134 Geary Blvd,San Francisco,CA,,37.780408,-122.485383,"(37.780408, -122.485383)",not ,available,05/02/2016 12:00:00 AM,92.0,Routine - Unscheduled,18079_20160502_103139,Improper food storage,Low Risk,medium
1810,TAL-Y-TARA TEA & POLO SHOPPE,6439 CALIFORNIA St,San Francisco,CA,94121,37.783773,-122.486779,"(37.783773, -122.486779)",,1810_20161006,10/06/2016 12:00:00 AM,,Non-inspection site visit,,,,medium
18102,Kim Son Restaurant,3614 BALBOA St,San Francisco,CA,94121,37.775728,-122.497701,"(37.775728, -122.497701)",14155815413,18102_20151223,12/23/2015 12:00:00 AM,86.0,Complaint,18102_20170203_103120,Moderate risk food holding temperature,Moderate Risk,high
1811,MOONLIGHT CAFE,634 CORTLAND Ave,San Francisco,CA,94110,37.738923,-122.415293,"(37.738923, -122.415293)",,1811_20161207,12/07/2016 12:00:00 AM,94.0,Routine - Unscheduled,1811_20161207_103157,Food safety certificate or food handler card not available,Low Risk,medium
18120,Ayola,118 NEW MONTGOMERY STREET,San Francisco,CA,94105,37.787127,-122.400201,"(37.787127, -122.400201)",,18120_20161214,12/14/2016 12:00:00 AM,96.0,Routine - Unscheduled,18120_20161214_103156,Permit license or inspection report not posted,Low Risk,medium
18126,Tacos San Buena,768 Sansome St,San Francisco,CA,94111,37.797327,-122.401957,"(37.797327, -122.401957)",,18126_20160528,05/28/2016 12:00:00 AM,96.0,Special Event,18126_20160506_103116,Inadequate food safety knowledge or lack of certified food safety manager,Moderate Risk,medium
1813,Cesario,601 Sutter St,San Francisco,CA,94102,37.788943,-122.410517,"(37.788943, -122.410517)",,1813_20160727,07/27/2016 12:00:00 AM,85.0,Routine - Unscheduled,1813_20160727_103109,Unclean or unsanitary food contact surfaces,High Risk,medium
1815,Banquet Kitchen,55 4th St,San Francisco,CA,94103,37.784964,-122.404752,"(37.784964, -122.404752)",,1815_20160729,07/29/2016 12:00:00 AM,75.0,Routine - Unscheduled,1815_20160729_103131,Moderate risk vermin infestation,Moderate Risk,medium
18268,Que Syrah,230 West Portal Ave,San Francisco,CA,94127,37.738609,-122.468423,"(37.738609, -122.468423)",,18268_20180830,08/30/2018 12:00:00 AM,100.0,Routine - Unscheduled,18268_20160615_103157,Food safety certificate or food handler card not available,Low Risk,medium
1829,Nob Hill Cafe,1152 Taylor St,San Francisco,CA,94108,37.793238,-122.412746,"(37.793238, -122.412746)",,1829_20180727,07/27/2018 12:00:00 AM,96.0,Routine - Unscheduled,1829_20180727_103120,Moderate risk food holding temperature,Moderate Risk,medium
1830,Sushi on North Beach,745 Columbus Ave,San Francisco,CA,94133,37.801616,-122.412137,"(37.801616, -122.412137)",,1830_20160503,05/03/2016 12:00:00 AM,86.0,Reinspection/Followup,1830_20160425_103124,Inadequately cleaned or sanitized food contact surfaces,Moderate Risk,medium
1831,B44,44 Belden Pl,San Francisco,CA,94104,37.791278,-122.403748,"(37.791278, -122.403748)",,1831_20160909,09/09/2016 12:00:00 AM,91.0,Reinspection/Followup,1831_20160826_103103,High risk food holding temperature,High Risk,medium
18310,Chef Hunan,4661 MISSION St,San Francisco,CA,94112,37.723782,-122.435446,"(37.723782, -122.435446)",,18310_20160825,08/25/2016 12:00:00 AM,90.0,Routine - Unscheduled,18310_20160825_103119,Inadequate and inaccessible handwashing facilities,Moderate Risk,medium
1832,Murphy's,217 Kearny St,San Francisco,CA,94108,37.790125,-122.403924,"(37.790125, -122.403924)",,1832_20170530,05/30/2017 12:00:00 AM,90.0,Routine - Unscheduled,1832_20170530_103148,No thermometers or uncalibrated thermometers,Low Risk,medium
18357,BARRIO,1609 Powell St,San Francisco,CA,94133,37.799513,-122.410704,"(37.799513, -122.410704)",5967798700,18357_20161229,12/29/2016 12:00:00 AM,86.0,Routine - Unscheduled,18357_20161229_103124,Inadequately cleaned or sanitized food contact surfaces,Moderate Risk,high
1837,Cafe Bastille,22 Belden Pl,San Francisco,CA,94104,37.791139,-122.403716,"(37.791139, -122.403716)",,1837_20181030,10/30/2018 12:00:00 AM,88.0,Routine - Unscheduled,1837_20181030_103133,Foods not protected from contamination,Moderate Risk,medium
18399,Starbucks,3735 Buchanan St,San Francisco,CA,94123,37.804444,-122.433625,"(37.804444, -122.433625)",,18399_20160810,08/10/2016 12:00:00 AM,100.0,New Construction,18399_20161003_103133,Foods not protected from contamination,Moderate Risk,medium
18422,Pisces California Cuisine,3416 Judah st,San Francisco,CA,94122,37.760769,-122.498792,"(37.760769, -122.498792)",,18422_20180725,07/25/2018 12:00:00 AM,98.0,Non-inspection site visit,18422_20170817_103154,Unclean or degraded floors walls or ceilings,Low Risk,medium
1843,Ma's Dim Sum & Cafe,1315 Powell St,San Francisco,CA,94133,37.796683,-122.410134,"(37.796683, -122.410134)",962656751358,1843_20160216,02/16/2016 12:00:00 AM,57.0,Routine - Unscheduled,1843_20160216_103102,Unclean hands or improper use of gloves,High Risk,high
1844,Basque Hotel,15 Romolo Pl,San Francisco,CA,94133,37.798244,-122.406324,"(37.798244, -122.406324)",,1844_20160520,05/20/2016 12:00:00 AM,92.0,Routine - Unscheduled,1844_20160520_103139,Improper food storage,Low Risk,medium
18462,Jack's Market,471 03rd St,San Francisco,CA,94107,37.781607,-122.396125,"(37.781607, -122.396125)",14150297778,18462_20180515,05/15/2018 12:00:00 AM,96.0,Routine - Unscheduled,18462_20180515_103119,Inadequate and inaccessible handwashing facilities,Moderate Risk,high
18480,Imperial Palace,818 Washington St,San Francisco,CA,94108,37.795138,-122.406863,"(37.795138, -122.406863)",,18480_20160324,03/24/2016 12:00:00 AM,63.0,Reinspection/Followup,18480_20160323_103147,Inadequate ventilation or lighting,Low Risk,medium
184a,RADIO HABANA,1109 VALENCIA St,San Francisco,CA,94110,37.755124,-122.420916,"(37.755124, -122.420916)",14155827659,184_20161003,10/03/2016 12:00:00 AM,98.0,Routine - Unscheduled,184_20161003_103149,Wiping cloths not clean or properly stored or inadequate sanitizer,Low Risk,high
1850,Battery Street Coffee Roastery,950 Battery St,San Francisco,CA,94111,37.800178,-122.401317,"(37.800178, -122.401317)",,1850_20160822,08/22/2016 12:00:00 AM,80.0,Routine - Unscheduled,1850_20160822_103144,Unapproved or unmaintained equipment or utensils,Low Risk,medium
18514,Yucatasia Deli & Sandwich,2164 Mission St,San Francisco,CA,94110,37.762366,-122.419491,"(37.762366, -122.419491)",,18514_20171010,10/10/2017 12:00:00 AM,72.0,Routine - Unscheduled,18514_20171010_103105,Improper cooling methods,High Risk,medium
1852,Pat's Cafe,2330 Taylor St,San Francisco,CA,94133,37.803947,-122.414927,"(37.803947, -122.414927)",,1852_20170106,01/06/2017 12:00:00 AM,88.0,Routine - Unscheduled,1852_20170106_103120,Moderate risk food holding temperature,Moderate Risk,medium
18538,Farm Fresh to You,1 Ferry Building  #9,San Francisco,CA,94111,37.795225,-122.39377,"(37.795225, -122.39377)",,18538_20160629,06/29/2016 12:00:00 AM,98.0,Reinspection/Followup,18538_20170710_103154,Unclean or degraded floors walls or ceilings,Low Risk,low
1854,Cafe Venue,218 Montgomery St,San Francisco,CA,94104,37.791148,-122.402262,"(37.791148, -122.402262)",,1854_20180110,01/10/2018 12:00:00 AM,87.0,Routine - Unscheduled,1854_20180110_103131,Moderate risk vermin infestation,Moderate Risk,medium
1856,Diller's Delicatessen,348 Pine St,San Francisco,CA,94104,37.792059,-122.40178,"(37.792059, -122.40178)",,1856_20160909,09/09/2016 12:00:00 AM,85.0,Reinspection/Followup,1856_20160829_103103,High risk food holding temperature,High Risk,medium
18573,Cafe Le,2895 VAN NESS Ave,San Francisco,CA,94109,37.802163,-122.424794,"(37.802163, -122.424794)",,18573_20161004,10/04/2016 12:00:00 AM,83.0,Reinspection/Followup,18573_20160919_103120,Moderate risk food holding temperature,Moderate Risk,medium
18577,AMC Theatres Metreon 16 - Main Stand,135 04th St  3000,San Francisco,CA,94103,37.784548,-122.40419,"(37.784548, -122.40419)",,18577_20160519,05/19/2016 12:00:00 AM,98.0,Routine - Unscheduled,18577_20160519_103145,Improper storage of equipment utensils or linens,Low Risk,low
18606,Sheba Restaurant & Lounge,1419 Fillmore St,San Francisco,CA,94115,37.782764,-122.432634,"(37.782764, -122.432634)",,18606_20160624,06/24/2016 12:00:00 AM,92.0,Routine - Unscheduled,18606_20160624_103144,Unapproved or unmaintained equipment or utensils,Low Risk,medium
18616,Kate O'Brien's,579 HOWARD St,San Francisco,CA,94105,37.787248,-122.397632,"(37.787248, -122.397632)",,18616_20170823,08/23/2017 12:00:00 AM,86.0,Reinspection/Followup,18616_20170810_103156,Permit license or inspection report not posted,Low Risk,medium
1866,Starbucks Coffee Company,343 Sansome St,San Francisco,CA,94104,37.793693,-122.401194,"(37.793693, -122.401194)",,1866_20160810,08/10/2016 12:00:00 AM,94.0,New Construction,1866_20180112_103154,Unclean or degraded floors walls or ceilings,Low Risk,medium
1867,Escape From New York Pizza,333 Bush St #103,San Francisco,CA,94104,37.790844,-122.403168,"(37.790844, -122.403168)",,1867_20180523,05/23/2018 12:00:00 AM,88.0,Routine - Unscheduled,1867_20180523_103121,Inadequate procedures or records for time as a public health control,Moderate Risk,medium
18686,Serve Well Market Inc,595 Ellis St,San Francisco,CA,94109,37.784411,-122.415954,"(37.784411, -122.415954)",14155440372,18686_20180103,01/03/2018 12:00:00 AM,70.0,Complaint,18686_20180103_103161,Low risk vermin infestation,Low Risk,high
187,TAZA WRAPS & JUICE,"750 FONT, BLDG B Blvd",San Francisco,CA,94132,37.723054,-122.483612,"(37.723054, -122.483612)",14155374525,187_20160429,04/29/2016 12:00:00 AM,96.0,Non-inspection site visit,187_20171128_103120,Moderate risk food holding temperature,Moderate Risk,low
1870,Cafe Tiramisu,28 Belden Pl,San Francisco,CA,94104,37.791198,-122.403737,"(37.791198, -122.403737)",,1870_20160707,07/07/2016 12:00:00 AM,80.0,Routine - Unscheduled,1870_20160707_103144,Unapproved or unmaintained equipment or utensils,Low Risk,medium
18755,Kitchen Istanbal,349 Clement St.,San Francisco,CA,94118,37.782974,-122.463119,"(37.782974, -122.463119)",,18755_20160712,07/12/2016 12:00:00 AM,82.0,Routine - Unscheduled,18755_20160712_103105,Improper cooling methods,High Risk,medium
18767,Wonderful Dessert & Cafe,2035 IRVING St,San Francisco,CA,94122,37.763399,-122.479654,"(37.763399, -122.479654)",,18767_20160408,04/08/2016 12:00:00 AM,87.0,Routine - Unscheduled,18767_20160408_103119,Inadequate and inaccessible handwashing facilities,Moderate Risk,medium
1880,Pasquales,2640 Sloat Blvd,San Francisco,CA,94117,37.735568,-122.5027,"(37.735568, -122.5027)",,1880_20180724,07/24/2018 12:00:00 AM,88.0,Routine - Unscheduled,1880_20180724_103161,Low risk vermin infestation,Low Risk,medium
18800,7-Mission Restaurant,150 07th St,San Francisco,CA,94103,37.778547,-122.41013,"(37.778547, -122.41013)",14155863298,18800_20161020,10/20/2016 12:00:00 AM,86.0,Reinspection/Followup,18800_20160309_103138,Improper storage use or identification of toxic substances,Low Risk,low
18805,Terzo,3011 Steiner St,San Francisco,CA,94123,37.797144,-122.437224,"(37.797144, -122.437224)",2463384040,18805_20160607,06/07/2016 12:00:00 AM,94.0,Routine - Unscheduled,18805_20160607_103154,Unclean or degraded floors walls or ceilings,Low Risk,high
18815,Lotus Garden Vietnamese Cuisine,3216 Mission St,San Francisco,CA,94110,37.745188,-122.420187,"(37.745188, -122.420187)",,18815_20160413,04/13/2016 12:00:00 AM,94.0,Routine - Unscheduled,18815_20160413_103149,Wiping cloths not clean or properly stored or inadequate sanitizer,Low Risk,medium
1882,Sorabol-Stonestown Galleria,3251 20th Ave,San Francisco,CA,94132,37.728497,-122.475639,"(37.728497, -122.475639)",14155755959,1882_20160422,04/22/2016 12:00:00 AM,89.0,Routine - Unscheduled,1882_20160422_103139,Improper food storage,Low Risk,high
18824,Fresca Restaurant,24 WEST PORTAL Ave,San Francisco,CA,94122,37.740502,-122.466192,"(37.740502, -122.466192)",,18824_20160629,06/29/2016 12:00:00 AM,86.0,Reinspection/Followup,18824_20160608_103120,Moderate risk food holding temperature,Moderate Risk,medium
18825,Fresca Restaurant,3945 24th St,San Francisco,CA,94114,37.751474,-122.430708,"(37.751474, -122.430708)",,18825_20161205,12/05/2016 12:00:00 AM,94.0,Routine - Unscheduled,18825_20161205_103120,Moderate risk food holding temperature,Moderate Risk,medium
18826,Fresca Restaurant,2114 FILLMORE St,San Francisco,CA,94115,37.789074,-122.433783,"(37.789074, -122.433783)",14155442668,18826_20160926,09/26/2016 12:00:00 AM,83.0,Routine - Unscheduled,18826_20160926_103119,Inadequate and inaccessible handwashing facilities,Moderate Risk,high
18855,Mission Creek Senior Community,225 Berry St,San Francisco,CA,94107,37.775278,-122.393873,"(37.775278, -122.393873)",,18855_20160520,05/20/2016 12:00:00 AM,94.0,Non-inspection site visit,18855_20161129_103116,Inadequate food safety knowledge or lack of certified food safety manager,Moderate Risk,medium
18874,North Beach Market and Deli,536 Broadway St,San Francisco,CA,94133,37.797978,-122.406134,"(37.797978, -122.406134)",,18874_20160509,05/09/2016 12:00:00 AM,92.0,Routine - Unscheduled,18874_20160509_103154,Unclean or degraded floors walls or ceilings,Low Risk,medium
18921,Nopa,560 Divisadero St,San Francisco,CA,94117,37.774778,-122.437717,"(37.774778, -122.437717)",,18921_20161109,11/09/2016 12:00:00 AM,93.0,Routine - Unscheduled,18921_20161109_103105,Improper cooling methods,High Risk,medium
1894,MAI'S VIETNAMESE RESTAURANT,316 Clement St,San Francisco,CA,94118,37.783048,-122.462641,"(37.783048, -122.462641)",,1894_20180919,09/19/2018 12:00:00 AM,93.0,Routine - Unscheduled,1894_20180919_103109,Unclean or unsanitary food contact surfaces,High Risk,medium
18940,Bruno's,2389 MISSION St,San Francisco,CA,94110,37.758914,-122.419036,"(37.758914, -122.419036)",,18940_20160930,09/30/2016 12:00:00 AM,94.0,Routine - Unscheduled,18940_20160930_103154,Unclean or degraded floors walls or ceilings,Low Risk,medium
18952,Hilton Financial District- Restaurant Seven Fifty,750 Kearny St 1st Floor,San Francisco,CA,94108,37.795057,-122.404876,"(37.795057, -122.404876)",,18952_20160610,06/10/2016 12:00:00 AM,100.0,Routine - Unscheduled,,,,low
18953,Hilton Financial District- Banquet & Catering,750 Kearny St 2nd Floor,San Francisco,CA,94108,37.795057,-122.404876,"(37.795057, -122.404876)",,18953_20160610,06/10/2016 12:00:00 AM,100.0,Routine - Unscheduled,,,,low
18954,Hilton Financial District-Flute Coffee and Wine Bar,750 Kearny St 1st Floor,San Francisco,CA,94108,37.795057,-122.404876,"(37.795057, -122.404876)",,18954_20160610,06/10/2016 12:00:00 AM,100.0,Routine - Unscheduled,,,,low
1896,SIMPLE PLEASURES CAFE,3434 BALBOA St,San Francisco,CA,94121,37.775818,-122.495802,"(37.775818, -122.495802)",,1896_20180223,02/23/2018 12:00:00 AM,85.0,Routine - Unscheduled,1896_20180223_103109,Unclean or unsanitary food contact surfaces,High Risk,medium
18981,Frascati,1901 Hyde St,San Francisco,CA,94109,37.798392,-122.418923,"(37.798392, -122.418923)",,18981_20180223,02/23/2018 12:00:00 AM,96.0,Routine - Unscheduled,18981_20180223_103152,Unclean unmaintained or improperly constructed toilet facilities,Low Risk,medium
18996,Ritual Coffee Roasters,1026 Valencia St,San Francisco,CA,94110,37.756427,-122.421094,"(37.756427, -122.421094)",,18996_20180831,08/31/2018 12:00:00 AM,98.0,Reinspection/Followup,18996_20160802_103145,Improper storage of equipment utensils or linens,Low Risk,medium
19,Nrgize Lifestyle Cafe,"1200 Van Ness Ave, 3rd Floor",SF,CA,94109,37.786848,-122.421547,"(37.786848, -122.421547)",,19_20171211,12/11/2017 12:00:00 AM,94.0,Routine - Unscheduled,19_20171211_103144,Unapproved or unmaintained equipment or utensils,Low Risk,medium
190,COURTYARD BY MARRIOTT-STAFF KITCHEN,299 02nd St,San Francisco,CA,94105,37.785614,-122.396693,"(37.785614, -122.396693)",,190_20161206,12/06/2016 12:00:00 AM,100.0,Routine - Unscheduled,,,,low
19002,Subway Sandwiches,5650 Geary Blvd,San Francisco,CA,94121,37.780421,-122.479933,"(37.780421, -122.479933)",,19002_20161026,10/26/2016 12:00:00 AM,87.0,Complaint,19002_20180607_103109,Unclean or unsanitary food contact surfaces,High Risk,medium
19003,Panchitas Restaurant,3091 16th St,San Francisco,CA,94103,37.764903,-122.421609,"(37.764903, -122.421609)",,19003_20180914,09/14/2018 12:00:00 AM,70.0,Reinspection/Followup,19003_20160802_103133,Foods not protected from contamination,Moderate Risk,medium
1903,GEARY STREET BELLA PIZZA,4124 Geary Blvd,San Francisco,CA,94118,37.781148,-122.463672,"(37.781148, -122.463672)",,1903_20180830,08/30/2018 12:00:00 AM,94.0,Routine - Unscheduled,1903_20180830_103144,Unapproved or unmaintained equipment or utensils,Low Risk,medium
19041,Nama Sushi,227 King St,San Francisco,CA,94107,37.777398,-122.392391,"(37.777398, -122.392391)",14155492007,19041_20161110,11/10/2016 12:00:00 AM,85.0,Routine - Unscheduled,19041_20161110_103119,Inadequate and inaccessible handwashing facilities,Moderate Risk,high
19043,Underdogs Sports Bar & Grill,1824 Irving St,San Francisco,CA,94122,37.763597,-122.477638,"(37.763597, -122.477638)",,19043_20161209,12/09/2016 12:00:00 AM,87.0,Routine - Unscheduled,19043_20161209_103124,Inadequately cleaned or sanitized food contact surfaces,Moderate Risk,medium
19055,Moscone Center West - Bsmt Kitchen,800 Howard St Basement,San Francisco,CA,94103,37.783257,-122.402816,"(37.783257, -122.402816)",14155974040,19055_20160602,06/02/2016 12:00:00 AM,88.0,Routine - Unscheduled,19055_20160602_103131,Moderate risk vermin infestation,Moderate Risk,low
19056,Moscone Center West -  3 Flr. Pantry,800 HOWARD St 3/F,San Francisco,CA,94103,37.783257,-122.402816,"(37.783257, -122.402816)",14155974040,19056_20160602,06/02/2016 12:00:00 AM,94.0,Routine - Unscheduled,19056_20160602_103154,Unclean or degraded floors walls or ceilings,Low Risk,low
19057,Moscone Center West -  2nd Flr. Pantry,800 Howard St 2nd Floor,San Francisco,CA,94103,37.783257,-122.402816,"(37.783257, -122.402816)",14155974040,19057_20160602,06/02/2016 12:00:00 AM,88.0,Routine - Unscheduled,19057_20160602_103119,Inadequate and inaccessible handwashing facilities,Moderate Risk,low
19058,Moscone Center West - 1st Flr. Pantry,800 Howard St 1st Floor,San Francisco,CA,94103,37.783257,-122.402816,"(37.783257, -122.402816)",14155974040,19058_20160602,06/02/2016 12:00:00 AM,94.0,Routine - Unscheduled,19058_20160602_103131,Moderate risk vermin infestation,Moderate Risk,low
19060,Moscone Convention Center - Stand #2,747 HOWARD St,San Francisco,CA,94103,37.784128,-122.401533,"(37.784128, -122.401533)",,19060_20160607,06/07/2016 12:00:00 AM,96.0,Routine - Unscheduled,19060_20160607_103131,Moderate risk vermin infestation,Moderate Risk,medium
19061,Moscone Convention Center - Stand #3,747 HOWARD St,San Francisco,CA,94103,37.784128,-122.401533,"(37.784128, -122.401533)",,19061_20160607,06/07/2016 12:00:00 AM,92.0,Routine - Unscheduled,19061_20160607_103131,Moderate risk vermin infestation,Moderate Risk,medium
19064,Moscone Convention Center - Stand #4,747 HOWARD St,San Francisco,CA,94103,37.784128,-122.401533,"(37.784128, -122.401533)",,19064_20170301,03/01/2017 12:00:00 AM,92.0,Routine - Unscheduled,19064_20170301_103131,Moderate risk vermin infestation,Moderate Risk,medium
19076,Star India Restaurant,3721 GEARY Blvd,San Francisco,CA,94118,37.781153,-122.45936,"(37.781153, -122.45936)",,19076_20160224,02/24/2016 12:00:00 AM,76.0,Routine - Unscheduled,19076_20160224_103105,Improper cooling methods,High Risk,medium
19082,Moscone Ctr. Northside Cafe/Cafe D,747 Howard St Basement,San Francisco,CA,94103,37.784128,-122.401533,"(37.784128, -122.401533)",,19082_20160607,06/07/2016 12:00:00 AM,96.0,Routine - Unscheduled,19082_20160607_103131,Moderate risk vermin infestation,Moderate Risk,medium
19087,Quick-N-Ezee/Indian Foods,1700 O'Farrell @ Fillmore St,San Francisco,CA,94115,,,,,19087_20160625,06/25/2016 12:00:00 AM,100.0,Routine - Unscheduled,,,,low
19094,Rigolo,3465 California St,San Francisco,CA,94118,37.786663,-122.451147,"(37.786663, -122.451147)",,19094_20161004,10/04/2016 12:00:00 AM,89.0,Complaint,19094_20161004_103149,Wiping cloths not clean or properly stored or inadequate sanitizer,Low Risk,medium
191,ARLEQUIN,B Hayes St,San Francisco,CA,94102,37.777014,-122.422345,"(37.777014, -122.422345)",,192_20160628,06/28/2016 12:00:00 AM,90.0,Routine - Unscheduled,192_20160628_103131,Moderate risk vermin infestation,Moderate Risk,medium
1912,Cafe Bakery,1345 Noriega St,San Francisco,CA,94122,37.754114,-122.47833,"(37.754114, -122.47833)",,1912_20160906,09/06/2016 12:00:00 AM,86.0,Reinspection/Followup,1912_20160222_103134,Other moderate risk violation,Moderate Risk,medium
19131,New Casa Maria,1201 So. Van Ness Ave.,San Francisco,CA,94110,37.753844,-122.416396,"(37.753844, -122.416396)",,19131_20160616,06/16/2016 12:00:00 AM,86.0,Routine - Unscheduled,19131_20160616_103131,Moderate risk vermin infestation,Moderate Risk,medium
19138,Pho Ha Tien,1900 OCEAN Ave,San Francisco,CA,94127,37.725306,-122.462261,"(37.725306, -122.462261)",,19138_20160531,05/31/2016 12:00:00 AM,84.0,Non-inspection site visit,19138_20160616_103103,High risk food holding temperature,High Risk,medium
19150,Mission-Silver Market,4304 MISSION St,San Francisco,CA,94112,37.728698,-122.43141,"(37.728698, -122.43141)",,19150_20160513,05/13/2016 12:00:00 AM,94.0,Routine - Unscheduled,19150_20160513_103161,Low risk vermin infestation,Low Risk,medium
19169,Club Bottoms Up,4704 Mission,San Francisco,CA,94112,37.72285,-122.436245,"(37.72285, -122.436245)",,19169_20180530,05/30/2018 12:00:00 AM,88.0,Routine - Unscheduled,19169_20180530_103119,Inadequate and inaccessible handwashing facilities,Moderate Risk,medium
19170,Vino Rosso,629 Cortland Ave,San Francisco,CA,94110,37.739041,-122.415636,"(37.739041, -122.415636)",14155641278,19170_20160829,08/29/2016 12:00:00 AM,98.0,Routine - Unscheduled,19170_20160829_103150,Improper or defective plumbing,Low Risk,high
19171,Gestalt,3159 16th St,San Francisco,CA,94103,37.764803,-122.423309,"(37.764803, -122.423309)",,19171_20160912,09/12/2016 12:00:00 AM,94.0,Routine - Unscheduled,19171_20160912_103120,Moderate risk food holding temperature,Moderate Risk,medium
192,ARLEQUIN,B Hayes St,San Francisco,CA,94102,37.777014,-122.422345,"(37.777014, -122.422345)",,192_20180403,04/03/2018 12:00:00 AM,94.0,Routine - Unscheduled,192_20180403_103144,Unapproved or unmaintained equipment or utensils,Low Risk,medium
19205,Woodhouse Fish Company,2073 MARKET St,San Francisco,CA,94114,37.767631,-122.428569,"(37.767631, -122.428569)",,19205_20180912,09/12/2018 12:00:00 AM,87.0,Routine - Unscheduled,19205_20180912_103154,Unclean or degraded floors walls or ceilings,Low Risk,medium
1921,TARAVAL OKAZU YA,1735 Taraval St,San Francisco,CA,94116,37.742603,-122.484646,"(37.742603, -122.484646)",,1921_20160613,06/13/2016 12:00:00 AM,85.0,Reinspection/Followup,1921_20160606_103107,Improper reheating of food,High Risk,low
1922,All stars Donuts,901 Clement St,San Francisco,CA,94118,37.782694,-122.468969,"(37.782694, -122.468969)",['+1-800-6432 7666' '+82-064-738 8151' 'UNDE'],1922_20160225,02/25/2016 12:00:00 AM,86.0,Routine - Unscheduled,1922_20160225_103154,Unclean or degraded floors walls or ceilings,Low Risk,low
1926,LINCOLN PARK BAR AND GRILL,300 34th Ave,San Francisco,CA,94121,37.782971,-122.496324,"(37.782971, -122.496324)",14155222254,1926_20171013,10/13/2017 12:00:00 AM,84.0,Routine - Unscheduled,1926_20171013_103161,Low risk vermin infestation,Low Risk,high
1927,STARBUCKS COFFEE,1799 FULTON St,San Francisco,CA,94117,37.775793,-122.446227,"(37.775793, -122.446227)",,1927_20180924,09/24/2018 12:00:00 AM,93.0,Routine - Unscheduled,1927_20180924_103109,Unclean or unsanitary food contact surfaces,High Risk,medium
19277,Farmer Brown,25 Mason St,San Francisco,CA,94102,37.783657,-122.409227,"(37.783657, -122.409227)",,19277_20160930,09/30/2016 12:00:00 AM,90.0,Routine - Unscheduled,19277_20160930_103120,Moderate risk food holding temperature,Moderate Risk,medium
1930,Sunrise Deli,2115 Irving St,San Francisco,CA,94122,37.763383,-122.48075,"(37.763383, -122.48075)",,1930_20180514,05/14/2018 12:00:00 AM,87.0,Routine - Unscheduled,1930_20180514_103139,Improper food storage,Low Risk,medium
1931,YUMMY YUMMY VIETNAMESE RESTAURANT,1015 IRVING St,San Francisco,CA,94122,37.763913,-122.468809,"(37.763913, -122.468809)",14155564722,1931_20180228,02/28/2018 12:00:00 AM,92.0,Complaint,1931_20180108_103120,Moderate risk food holding temperature,Moderate Risk,high
1932,Five Happiness,4142 Geary Blvd,San Francisco,CA,94118,37.781138,-122.463931,"(37.781138, -122.463931)",,1932_20160601,06/01/2016 12:00:00 AM,87.0,Routine - Unscheduled,1932_20160601_103133,Foods not protected from contamination,Moderate Risk,medium
19357,Original Buffalo Wings,2499 Lombard St,San Francisco,CA,94123,37.799095,-122.442457,"(37.799095, -122.442457)",14155938181,19357_20180116,01/16/2018 12:00:00 AM,69.0,Routine - Unscheduled,19357_20180116_103133,Foods not protected from contamination,Moderate Risk,high
19373,Las Isletas,4508 03rd St,San Francisco,CA,94124,37.737021,-122.390043,"(37.737021, -122.390043)",14155577698,19373_20160220,02/20/2016 12:00:00 AM,66.0,Reinspection/Followup,19373_20181101_103114,High risk vermin infestation,High Risk,high
19379,Andersen Bakery,50 Post St #1,San Francisco,CA,94104,37.789064,-122.402861,"(37.789064, -122.402861)",,19379_20161109,11/09/2016 12:00:00 AM,89.0,Routine - Unscheduled,19379_20161109_103157,Food safety certificate or food handler card not available,Low Risk,low
1939,STARBUCKS COFFEE CO. #603,74 NEW MONTGOMERY St,San Francisco,CA,94105,37.787838,-122.400998,"(37.787838, -122.400998)",,1939_20161214,12/14/2016 12:00:00 AM,98.0,Routine - Unscheduled,1939_20161214_103154,Unclean or degraded floors walls or ceilings,Low Risk,medium
194,Unavailable,2011 BAYSHORE Blvd,San Francisco,CA,94134,37.715126,-122.398901,"(37.715126, -122.398901)",14155462023,194_20171010,10/10/2017 12:00:00 AM,84.0,Reinspection/Followup,194_20170919_103149,Wiping cloths not clean or properly stored or inadequate sanitizer,Low Risk,low
19403,Starbucks,499 Bay St,San Francisco,CA,94133,37.805493,-122.414407,"(37.805493, -122.414407)",,19403_20160329,03/29/2016 12:00:00 AM,98.0,Routine - Unscheduled,19403_20160329_103154,Unclean or degraded floors walls or ceilings,Low Risk,medium
19416,Starbucks,865 Market St C26,San Francisco,CA,94103,37.784317,-122.407563,"(37.784317, -122.407563)",14155604908,19416_20180718,07/18/2018 12:00:00 AM,96.0,Routine - Unscheduled,19416_20180718_103154,Unclean or degraded floors walls or ceilings,Low Risk,high
19417,Starbucks,5 03rd St,San Francisco,CA,94103,37.787569,-122.403349,"(37.787569, -122.403349)",,19417_20160824,08/24/2016 12:00:00 AM,96.0,New Construction,19417_20171128_103159,Worker safety hazards,Low Risk,medium
19418,Starbucks,675 Townsend St,San Francisco,CA,94103,37.770517,-122.403221,"(37.770517, -122.403221)",,19418_20180626,06/26/2018 12:00:00 AM,96.0,Routine - Unscheduled,19418_20180626_103129,Insufficient hot water or running water,Moderate Risk,medium
1949,PLUTO'S,627 IRVING St,San Francisco,CA,94122,37.764083,-122.46471,"(37.764083, -122.46471)",14155758867,1949_20180305,03/05/2018 12:00:00 AM,89.0,Routine - Unscheduled,1949_20180305_103133,Foods not protected from contamination,Moderate Risk,high
